{
  "855126": {
    "name": "Tulsia",
    "lat": 24.9833,
    "lng": 81.0583
  },
  "855121": {
    "name": "Balarampur",
    "lat": 24.9833,
    "lng": 81.0583
  },
  "855119": {
    "name": "Terhagachi",
    "lat": 24.9833,
    "lng": 81.0583
  },
  "855117": {
    "name": "Taiyabpur",
    "lat": 24.9833,
    "lng": 81.0583
  },
  "855116": {
    "name": "Thakurganj",
    "lat": 24.9833,
    "lng": 81.0583
  },
  "855113": {
    "name": "Salmari",
    "lat": 24.9833,
    "lng": 81.0583
  },
  "855106": {
    "name": "Galgalia",
    "lat": 24.9833,
    "lng": 81.0583
  },
  "855101": {
    "name": "Bahadurganj",
    "lat": 24.9833,
    "lng": 81.0583
  },
  "854364": {
    "name": "Ganeshpur (Purnea)",
    "lat": 24.9833,
    "lng": 81.0583
  },
  "854357": {
    "name": "Amhara (Pornia)",
    "lat": 24.9833,
    "lng": 81.0583
  },
  "854347": {
    "name": "Rampur(Purnea)",
    "lat": 24.9833,
    "lng": 81.0583
  },
  "854339": {
    "name": "Balua Bazar",
    "lat": 23.55,
    "lng": 74.8667
  },
  "854336": {
    "name": "Nawabganj",
    "lat": 23.55,
    "lng": 74.8667
  },
  "854335": {
    "name": "Narpalganj",
    "lat": 23.55,
    "lng": 74.8667
  },
  "854333": {
    "name": "Madanpur Purnia",
    "lat": 23.55,
    "lng": 74.8667
  },
  "854330": {
    "name": "Kasba",
    "lat": 23.55,
    "lng": 74.8667
  },
  "854328": {
    "name": "Jogbani",
    "lat": 26.4167,
    "lng": 87.25
  },
  "854327": {
    "name": "Jalalgarh",
    "lat": 26.4167,
    "lng": 87.25
  },
  "854326": {
    "name": "Gulabbagh",
    "lat": 26.4167,
    "lng": 87.25
  },
  "854325": {
    "name": "Garh Banaili",
    "lat": 26.4167,
    "lng": 87.25
  },
  "854318": {
    "name": "Forbesganj",
    "lat": 24.9833,
    "lng": 81.0583
  },
  "854315": {
    "name": "Baisi",
    "lat": 24.9833,
    "lng": 81.0583
  },
  "854312": {
    "name": "Araria R S",
    "lat": 24.9833,
    "lng": 81.0583
  },
  "854311": {
    "name": "Araria",
    "lat": 24.9833,
    "lng": 81.0583
  },
  "854206": {
    "name": "Sarsi",
    "lat": 24.9833,
    "lng": 81.0583
  },
  "854205": {
    "name": "Dhamdaha",
    "lat": 24.9833,
    "lng": 81.0583
  },
  "854204": {
    "name": "Rajdham",
    "lat": 24.9833,
    "lng": 81.0583
  },
  "854202": {
    "name": "Banmankhi",
    "lat": 24.9833,
    "lng": 81.0583
  },
  "854201": {
    "name": "Banaili",
    "lat": 24.9833,
    "lng": 81.0583
  },
  "854116": {
    "name": "Mahadeopur",
    "lat": 24.9833,
    "lng": 81.0583
  },
  "854113": {
    "name": "Manihari",
    "lat": 24.9833,
    "lng": 81.0583
  },
  "854107": {
    "name": "Katihar Mills",
    "lat": 24.9833,
    "lng": 81.0583
  },
  "854106": {
    "name": "Katihar Bmp Camp",
    "lat": 24.9833,
    "lng": 81.0583
  },
  "854105": {
    "name": "Katihar Colony",
    "lat": 24.9833,
    "lng": 81.0583
  },
  "854102": {
    "name": "Chopra Ram Nagar",
    "lat": 24.9833,
    "lng": 81.0583
  },
  "853205": {
    "name": "Saidpur Tola Goriar",
    "lat": 24.9833,
    "lng": 81.0583
  },
  "853204": {
    "name": "Naugachia",
    "lat": 24.9833,
    "lng": 81.0583
  },
  "853203": {
    "name": "Narayanpur",
    "lat": 24.9833,
    "lng": 81.0583
  },
  "852235": {
    "name": "Hardi (Saharsa)",
    "lat": 24.9833,
    "lng": 81.0583
  },
  "852233": {
    "name": "Ganeshpur (Saharsa)",
    "lat": 24.9833,
    "lng": 81.0583
  },
  "852220": {
    "name": "Udakishanganj",
    "lat": 24.9833,
    "lng": 81.0583
  },
  "852217": {
    "name": "Mangwar",
    "lat": 24.9833,
    "lng": 81.0583
  },
  "852216": {
    "name": "Mahisi",
    "lat": 24.9833,
    "lng": 81.0583
  },
  "852215": {
    "name": "Karzan Bazar",
    "lat": 24.9833,
    "lng": 81.0583
  },
  "852214": {
    "name": "Jadia",
    "lat": 24.9833,
    "lng": 81.0583
  },
  "852213": {
    "name": "Chausa (Saharsa)",
    "lat": 24.9833,
    "lng": 81.0583
  },
  "852212": {
    "name": "Bangaon",
    "lat": 24.9833,
    "lng": 81.0583
  },
  "852201": {
    "name": "Saharsa Distt Bd",
    "lat": 24.9833,
    "lng": 81.0583
  },
  "852159": {
    "name": "Thumha",
    "lat": 24.9833,
    "lng": 81.0583
  },
  "852139": {
    "name": "Tribeniganj",
    "lat": 24.9833,
    "lng": 81.0583
  },
  "852138": {
    "name": "Tharbitta",
    "lat": 24.9833,
    "lng": 81.0583
  },
  "852126": {
    "name": "Salkhua Bazar",
    "lat": 24.9833,
    "lng": 81.0583
  },
  "852124": {
    "name": "Panhgachia",
    "lat": 24.9833,
    "lng": 81.0583
  },
  "852123": {
    "name": "Nauhatta",
    "lat": 24.9833,
    "lng": 81.0583
  },
  "852113": {
    "name": "Madhepura College",
    "lat": 24.9833,
    "lng": 81.0583
  },
  "852111": {
    "name": "Jiaram Raghopur",
    "lat": 24.9833,
    "lng": 81.0583
  },
  "852110": {
    "name": "Garh Baruai",
    "lat": 24.9833,
    "lng": 81.0583
  },
  "852109": {
    "name": "Ganpatganj",
    "lat": 24.9833,
    "lng": 81.0583
  },
  "852108": {
    "name": "Gamharia(Saharsa)",
    "lat": 24.9833,
    "lng": 81.0583
  },
  "852107": {
    "name": "Dhabauli",
    "lat": 24.9833,
    "lng": 81.0583
  },
  "851225": {
    "name": "Parihara",
    "lat": 24.9833,
    "lng": 81.0583
  },
  "851219": {
    "name": "Balha",
    "lat": 24.9833,
    "lng": 81.0583
  },
  "851217": {
    "name": "Sahebpur Kamal",
    "lat": 24.9833,
    "lng": 81.0583
  },
  "851216": {
    "name": "Parbatta",
    "lat": 24.9833,
    "lng": 81.0583
  },
  "851215": {
    "name": "Nayagaon(Bhagalpur)",
    "lat": 24.9833,
    "lng": 81.0583
  },
  "851213": {
    "name": "Maheshkhunt",
    "lat": 24.9833,
    "lng": 81.0583
  },
  "851211": {
    "name": "Lakhimnia",
    "lat": 24.9833,
    "lng": 81.0583
  },
  "851203": {
    "name": "Jamalpur Gogri",
    "lat": 24.9833,
    "lng": 81.0583
  },
  "851201": {
    "name": "Chautham",
    "lat": 24.9833,
    "lng": 81.0583
  },
  "851134": {
    "name": "Ulao",
    "lat": 24.9833,
    "lng": 81.0583
  },
  "851133": {
    "name": "Teghra",
    "lat": 24.9833,
    "lng": 81.0583
  },
  "851131": {
    "name": "Rajaura",
    "lat": 24.9833,
    "lng": 81.0583
  },
  "851130": {
    "name": "Naokothi",
    "lat": 24.9833,
    "lng": 81.0583
  },
  "851126": {
    "name": "Garhara",
    "lat": 24.9833,
    "lng": 81.0583
  },
  "851122": {
    "name": "Tilrath",
    "lat": 24.9833,
    "lng": 81.0583
  },
  "851112": {
    "name": "Barauni",
    "lat": 24.9833,
    "lng": 81.0583
  },
  "851111": {
    "name": "Bachwara",
    "lat": 24.9833,
    "lng": 81.0583
  },
  "851101": {
    "name": "G D College Road",
    "lat": 24.9833,
    "lng": 81.0583
  },
  "848506": {
    "name": "Baghra",
    "lat": 25.55,
    "lng": 88.6167
  },
  "848504": {
    "name": "Patory",
    "lat": 25.55,
    "lng": 88.6167
  },
  "848302": {
    "name": "Kalyanpur Chowk",
    "lat": 25.55,
    "lng": 88.6167
  },
  "848239": {
    "name": "Jhakhra (Samastipur)",
    "lat": 25.55,
    "lng": 88.6167
  },
  "848223": {
    "name": "Desri (Samastipur)",
    "lat": 25.55,
    "lng": 88.6167
  },
  "848211": {
    "name": "Narhan",
    "lat": 25.55,
    "lng": 88.6167
  },
  "848208": {
    "name": "Mangalgarh",
    "lat": 25.55,
    "lng": 88.6167
  },
  "848205": {
    "name": "Hasanpur Sugar Mills",
    "lat": 25.55,
    "lng": 88.6167
  },
  "848204": {
    "name": "Garhpura",
    "lat": 25.55,
    "lng": 88.6167
  },
  "848203": {
    "name": "Sakarpura",
    "lat": 25.55,
    "lng": 88.6167
  },
  "848201": {
    "name": "Bakhri Bazar",
    "lat": 25.55,
    "lng": 88.6167
  },
  "848160": {
    "name": "Lat Basepura",
    "lat": 25.55,
    "lng": 88.6167
  },
  "848153": {
    "name": "Chatauna (Samastipur)",
    "lat": 25.55,
    "lng": 88.6167
  },
  "848139": {
    "name": "Chaita (Samastipur)",
    "lat": 25.55,
    "lng": 88.6167
  },
  "848134": {
    "name": "Jitwarpur",
    "lat": 25.55,
    "lng": 88.6167
  },
  "848133": {
    "name": "Warisnagar",
    "lat": 25.55,
    "lng": 88.6167
  },
  "848132": {
    "name": "Ujairpur",
    "lat": 25.55,
    "lng": 88.6167
  },
  "848131": {
    "name": "Waini",
    "lat": 25.55,
    "lng": 88.6167
  },
  "848130": {
    "name": "Tajpur",
    "lat": 25.55,
    "lng": 88.6167
  },
  "848127": {
    "name": "Sarairanjan",
    "lat": 25.55,
    "lng": 88.6167
  },
  "848124": {
    "name": "Gangapur",
    "lat": 23.8667,
    "lng": 75.9833
  },
  "848122": {
    "name": "Madhepur Dighra",
    "lat": 25.55,
    "lng": 88.6167
  },
  "848120": {
    "name": "Chakradharpur Bazar",
    "lat": 25.55,
    "lng": 88.6167
  },
  "848117": {
    "name": "Ilmasnagar",
    "lat": 25.55,
    "lng": 88.6167
  },
  "848114": {
    "name": "Dalsingsarai H O",
    "lat": 25.55,
    "lng": 88.6167
  },
  "848111": {
    "name": "Akhtiarpur",
    "lat": 25.55,
    "lng": 88.6167
  },
  "848109": {
    "name": "Lagunia Raghukanth",
    "lat": 25.55,
    "lng": 88.6167
  },
  "848102": {
    "name": "Nauranga",
    "lat": 25.55,
    "lng": 88.6167
  },
  "848101": {
    "name": "Kashipur",
    "lat": 25.55,
    "lng": 88.6167
  },
  "847451": {
    "name": "Kanhauli Bazar",
    "lat": 25.2917,
    "lng": 88.5333
  },
  "847424": {
    "name": "Sarsopahi",
    "lat": 25.2917,
    "lng": 88.5333
  },
  "847422": {
    "name": "Manigachi",
    "lat": 25.2917,
    "lng": 88.5333
  },
  "847421": {
    "name": "Laukahi",
    "lat": 25.2917,
    "lng": 88.5333
  },
  "847419": {
    "name": "Parsa(Madhubani)",
    "lat": 25.2917,
    "lng": 88.5333
  },
  "847411": {
    "name": "Haripur (Darbhanga)",
    "lat": 25.2917,
    "lng": 88.5333
  },
  "847410": {
    "name": "Tamuria",
    "lat": 25.2917,
    "lng": 88.5333
  },
  "847408": {
    "name": "Madhepur",
    "lat": 25.2917,
    "lng": 88.5333
  },
  "847407": {
    "name": "Lohna Road",
    "lat": 25.2917,
    "lng": 88.5333
  },
  "847406": {
    "name": "Laukahi",
    "lat": 25.2917,
    "lng": 88.5333
  },
  "847404": {
    "name": "Jhanjharpur",
    "lat": 25.2917,
    "lng": 88.5333
  },
  "847403": {
    "name": "Jhanjharpur R S",
    "lat": 25.2917,
    "lng": 88.5333
  },
  "847402": {
    "name": "Ghoghardiha",
    "lat": 25.2917,
    "lng": 88.5333
  },
  "847401": {
    "name": "Andhra",
    "lat": 25.2917,
    "lng": 88.5333
  },
  "847308": {
    "name": "Saharghat",
    "lat": 25.2917,
    "lng": 88.5333
  },
  "847305": {
    "name": "Madhwarpur",
    "lat": 25.2917,
    "lng": 88.5333
  },
  "847304": {
    "name": "Kamtaul",
    "lat": 25.2917,
    "lng": 88.5333
  },
  "847303": {
    "name": "Jogiara",
    "lat": 25.2917,
    "lng": 88.5333
  },
  "847301": {
    "name": "Hayaghat Bilaspur",
    "lat": 25.2917,
    "lng": 88.5333
  },
  "847255": {
    "name": "Parwa",
    "lat": 25.2917,
    "lng": 88.5333
  },
  "847239": {
    "name": "Sakri",
    "lat": 25.2917,
    "lng": 88.5333
  },
  "847236": {
    "name": "Rampatti",
    "lat": 25.2917,
    "lng": 88.5333
  },
  "847235": {
    "name": "Rajnagar(Madhubani)",
    "lat": 25.2917,
    "lng": 88.5333
  },
  "847234": {
    "name": "Pandaul",
    "lat": 25.2917,
    "lng": 88.5333
  },
  "847232": {
    "name": "Ladania",
    "lat": 25.2917,
    "lng": 88.5333
  },
  "847231": {
    "name": "Lohat",
    "lat": 25.2917,
    "lng": 88.5333
  },
  "847226": {
    "name": "Haubagar Bazar",
    "lat": 25.2917,
    "lng": 88.5333
  },
  "847224": {
    "name": "Babubarhi",
    "lat": 25.2917,
    "lng": 88.5333
  },
  "847222": {
    "name": "Arehat",
    "lat": 25.2917,
    "lng": 88.5333
  },
  "847211": {
    "name": "Madhubani H O",
    "lat": 25.2917,
    "lng": 88.5333
  },
  "847201": {
    "name": "Bahera(Madhubani)",
    "lat": 25.2917,
    "lng": 88.5333
  },
  "847121": {
    "name": "Keotirunway",
    "lat": 25.2917,
    "lng": 88.5333
  },
  "847106": {
    "name": "Kansi Simri",
    "lat": 25.2917,
    "lng": 88.5333
  },
  "847105": {
    "name": "Baheri",
    "lat": 25.2917,
    "lng": 88.5333
  },
  "847101": {
    "name": "Anandpur",
    "lat": 25.2917,
    "lng": 88.5333
  },
  "846007": {
    "name": "Sara Mohanpur",
    "lat": 25.2917,
    "lng": 88.5333
  },
  "846005": {
    "name": "P Training C Darbhanga",
    "lat": 25.2917,
    "lng": 88.5333
  },
  "846004": {
    "name": "Darbhanga H O",
    "lat": 25.2917,
    "lng": 88.5333
  },
  "846003": {
    "name": "Darbhanga Medical College",
    "lat": 25.2917,
    "lng": 88.5333
  },
  "846001": {
    "name": "Banta South",
    "lat": 25.2917,
    "lng": 88.5333
  },
  "845520": {
    "name": "Olha Madhubani",
    "lat": 25.2917,
    "lng": 88.5333
  },
  "845513": {
    "name": "Rampur(Motihari)",
    "lat": 25.2917,
    "lng": 88.5333
  },
  "845492": {
    "name": "Chapra Bahas",
    "lat": 25.2917,
    "lng": 88.5333
  },
  "845485": {
    "name": "Ajagari",
    "lat": 25.2917,
    "lng": 88.5333
  },
  "845481": {
    "name": "Turhapatti",
    "lat": 25.2917,
    "lng": 88.5333
  },
  "845475": {
    "name": "Parsa(Bettiah)",
    "lat": 25.2917,
    "lng": 88.5333
  },
  "845470": {
    "name": "Jhakhra",
    "lat": 25.2917,
    "lng": 88.5333
  },
  "845466": {
    "name": "Bairia",
    "lat": 25.2917,
    "lng": 88.5333
  },
  "845459": {
    "name": "Jagdishpur Motihari",
    "lat": 25.2917,
    "lng": 88.5333
  },
  "845458": {
    "name": "Manguraha",
    "lat": 25.2917,
    "lng": 88.5333
  },
  "845457": {
    "name": "Patahi(Champaran)",
    "lat": 25.2917,
    "lng": 88.5333
  },
  "845455": {
    "name": "Narkatiaganj",
    "lat": 25.2917,
    "lng": 88.5333
  },
  "845454": {
    "name": "Majhaulia R S",
    "lat": 25.2917,
    "lng": 88.5333
  },
  "845453": {
    "name": "Lauria",
    "lat": 25.2917,
    "lng": 88.5333
  },
  "845452": {
    "name": "Jogapatti",
    "lat": 25.2917,
    "lng": 88.5333
  },
  "845449": {
    "name": "Chanpatia",
    "lat": 25.2917,
    "lng": 88.5333
  },
  "845440": {
    "name": "Jaitpur Lankaria",
    "lat": 25.2917,
    "lng": 88.5333
  },
  "845438": {
    "name": "Nayatola Bettiah",
    "lat": 25.2917,
    "lng": 88.5333
  },
  "845436": {
    "name": "Tetaria Factory",
    "lat": 25.2917,
    "lng": 88.5333
  },
  "845434": {
    "name": "Sangrampur(Champaran)",
    "lat": 25.2917,
    "lng": 88.5333
  },
  "845433": {
    "name": "Ramgarhwa",
    "lat": 25.2917,
    "lng": 88.5333
  },
  "845432": {
    "name": "Rajpur(Champaran)",
    "lat": 25.2917,
    "lng": 88.5333
  },
  "845431": {
    "name": "Raghunathpur Bazar",
    "lat": 25.2917,
    "lng": 88.5333
  },
  "845430": {
    "name": "Phenhara",
    "lat": 25.2917,
    "lng": 88.5333
  },
  "845428": {
    "name": "Pakridayal",
    "lat": 25.2917,
    "lng": 88.5333
  },
  "845427": {
    "name": "Pachpakri",
    "lat": 25.2917,
    "lng": 88.5333
  },
  "845425": {
    "name": "Malahi",
    "lat": 25.2917,
    "lng": 88.5333
  },
  "845423": {
    "name": "Hussaini",
    "lat": 25.2917,
    "lng": 88.5333
  },
  "845422": {
    "name": "Harsidhi",
    "lat": 25.2917,
    "lng": 88.5333
  },
  "845421": {
    "name": "Hanuman Sugar Mills",
    "lat": 25.2917,
    "lng": 88.5333
  },
  "845420": {
    "name": "Telgu",
    "lat": 25.2917,
    "lng": 88.5333
  },
  "845419": {
    "name": "Gobindganj",
    "lat": 25.2917,
    "lng": 88.5333
  },
  "845418": {
    "name": "Dhaka",
    "lat": 25.2917,
    "lng": 88.5333
  },
  "845417": {
    "name": "Dariapur",
    "lat": 25.2917,
    "lng": 88.5333
  },
  "845416": {
    "name": "Damodarpur",
    "lat": 25.2917,
    "lng": 88.5333
  },
  "845414": {
    "name": "Chaita (Motihari)",
    "lat": 25.2917,
    "lng": 88.5333
  },
  "845413": {
    "name": "Bakarpur Jagat",
    "lat": 25.2917,
    "lng": 88.5333
  },
  "845412": {
    "name": "Barachakia",
    "lat": 25.2917,
    "lng": 88.5333
  },
  "845411": {
    "name": "Areraj",
    "lat": 25.2917,
    "lng": 88.5333
  },
  "845406": {
    "name": "Rajepur Champaran",
    "lat": 25.2917,
    "lng": 88.5333
  },
  "845401": {
    "name": "Henry Bazar",
    "lat": 25.2917,
    "lng": 88.5333
  },
  "845312": {
    "name": "Chandanbara",
    "lat": 25.2917,
    "lng": 88.5333
  },
  "845308": {
    "name": "Haripur (Bettiah)",
    "lat": 25.2917,
    "lng": 88.5333
  },
  "845306": {
    "name": "Mainatar",
    "lat": 25.2917,
    "lng": 88.5333
  },
  "845304": {
    "name": "Chainpur",
    "lat": 25.2917,
    "lng": 88.5333
  },
  "845303": {
    "name": "Ghorasahan",
    "lat": 25.2917,
    "lng": 88.5333
  },
  "845302": {
    "name": "Chauradano",
    "lat": 25.2917,
    "lng": 88.5333
  },
  "845301": {
    "name": "Adapur",
    "lat": 25.2917,
    "lng": 88.5333
  },
  "845145": {
    "name": "Chiraiya",
    "lat": 25.2917,
    "lng": 88.5333
  },
  "845120": {
    "name": "Telpur",
    "lat": 25.2917,
    "lng": 88.5333
  },
  "845119": {
    "name": "Tinpheria",
    "lat": 25.2917,
    "lng": 88.5333
  },
  "845108": {
    "name": "Bahera (Bettiah)",
    "lat": 25.2917,
    "lng": 88.5333
  },
  "845107": {
    "name": "Vaimikinagar",
    "lat": 25.2917,
    "lng": 88.5333
  },
  "845106": {
    "name": "Ramnagan",
    "lat": 25.2917,
    "lng": 88.5333
  },
  "845105": {
    "name": "Naraipur",
    "lat": 25.2917,
    "lng": 88.5333
  },
  "845104": {
    "name": "Madhubani",
    "lat": 25.2917,
    "lng": 88.5333
  },
  "845101": {
    "name": "Bagaha",
    "lat": 25.2917,
    "lng": 88.5333
  },
  "844509": {
    "name": "Sahdei Buzrug",
    "lat": 25.2917,
    "lng": 88.5333
  },
  "844508": {
    "name": "Raghopur",
    "lat": 25.2917,
    "lng": 88.5333
  },
  "844507": {
    "name": "Mahnar Rd R S",
    "lat": 25.2917,
    "lng": 88.5333
  },
  "844506": {
    "name": "Mahnar",
    "lat": 25.2917,
    "lng": 88.5333
  },
  "844505": {
    "name": "Jhandaba",
    "lat": 25.2917,
    "lng": 88.5333
  },
  "844504": {
    "name": "Desri (Hajipur)",
    "lat": 25.2917,
    "lng": 88.5333
  },
  "844141": {
    "name": "Tisiauta Dharampur",
    "lat": 25.2917,
    "lng": 88.5333
  },
  "844131": {
    "name": "Hansikewal",
    "lat": 25.2917,
    "lng": 88.5333
  },
  "844128": {
    "name": "Vaishali",
    "lat": 25.2917,
    "lng": 88.5333
  },
  "844125": {
    "name": "Sarai",
    "lat": 25.2917,
    "lng": 88.5333
  },
  "844124": {
    "name": "Rajapakar",
    "lat": 25.2917,
    "lng": 88.5333
  },
  "844123": {
    "name": "Parta Ptand",
    "lat": 25.2917,
    "lng": 88.5333
  },
  "844122": {
    "name": "Mahua",
    "lat": 25.2917,
    "lng": 88.5333
  },
  "844121": {
    "name": "Lalganj",
    "lat": 25.2917,
    "lng": 88.5333
  },
  "844119": {
    "name": "Ghataro",
    "lat": 25.2917,
    "lng": 88.5333
  },
  "844118": {
    "name": "Garaul",
    "lat": 25.2917,
    "lng": 88.5333
  },
  "844117": {
    "name": "Dharahara (Muzaffarpur)",
    "lat": 25.2917,
    "lng": 88.5333
  },
  "844115": {
    "name": "Chaksikandar",
    "lat": 25.2917,
    "lng": 88.5333
  },
  "844113": {
    "name": "Balukaram",
    "lat": 25.2917,
    "lng": 88.5333
  },
  "844112": {
    "name": "Baghi",
    "lat": 25.2917,
    "lng": 88.5333
  },
  "844111": {
    "name": "Anirudh Belsar",
    "lat": 25.2917,
    "lng": 88.5333
  },
  "844101": {
    "name": "Hajipur H O",
    "lat": 25.2917,
    "lng": 88.5333
  },
  "843362": {
    "name": "Nayagaon(Sitamrhi)",
    "lat": 25.2917,
    "lng": 88.5333
  },
  "843361": {
    "name": "Jamua (Sitamahi)",
    "lat": 25.2917,
    "lng": 88.5333
  },
  "843360": {
    "name": "Jajuar",
    "lat": 25.2917,
    "lng": 88.5333
  },
  "843356": {
    "name": "Dhankaul",
    "lat": 25.2917,
    "lng": 88.5333
  },
  "843342": {
    "name": "Parshurampur(Sitamarhi)",
    "lat": 25.2917,
    "lng": 88.5333
  },
  "843333": {
    "name": "Nanpur",
    "lat": 25.2917,
    "lng": 88.5333
  },
  "843332": {
    "name": "Majorganj",
    "lat": 25.2917,
    "lng": 88.5333
  },
  "843326": {
    "name": "Raipur",
    "lat": 30.25,
    "lng": 77.5833
  },
  "843325": {
    "name": "Parsauni",
    "lat": 25.2917,
    "lng": 88.5333
  },
  "843324": {
    "name": "Parihar",
    "lat": 25.2917,
    "lng": 88.5333
  },
  "843322": {
    "name": "Majhaulia Estate",
    "lat": 25.2917,
    "lng": 88.5333
  },
  "843321": {
    "name": "Katra",
    "lat": 25.2917,
    "lng": 88.5333
  },
  "843320": {
    "name": "Janakpur Road",
    "lat": 25.2917,
    "lng": 88.5333
  },
  "843314": {
    "name": "Bajpatti",
    "lat": 25.2917,
    "lng": 88.5333
  },
  "843313": {
    "name": "Bairagania Bazar",
    "lat": 25.2917,
    "lng": 88.5333
  },
  "843301": {
    "name": "Janki Asthan",
    "lat": 25.2917,
    "lng": 88.5333
  },
  "843164": {
    "name": "Tepri",
    "lat": 25.2917,
    "lng": 88.5333
  },
  "843147": {
    "name": "Mahanth Maniari",
    "lat": 25.2917,
    "lng": 88.5333
  },
  "843144": {
    "name": "Katesar",
    "lat": 25.2917,
    "lng": 88.5333
  },
  "843143": {
    "name": "Karja",
    "lat": 25.2917,
    "lng": 88.5333
  },
  "843141": {
    "name": "Jasauli",
    "lat": 25.2917,
    "lng": 88.5333
  },
  "843139": {
    "name": "Baghnagri",
    "lat": 25.2917,
    "lng": 88.5333
  },
  "843130": {
    "name": "Kanti Thermal Power",
    "lat": 25.2917,
    "lng": 88.5333
  },
  "843129": {
    "name": "Narma",
    "lat": 25.2917,
    "lng": 88.5333
  },
  "843126": {
    "name": "Saraiya Factory",
    "lat": 25.2917,
    "lng": 88.5333
  },
  "843124": {
    "name": "Kathaiya",
    "lat": 25.2917,
    "lng": 88.5333
  },
  "843123": {
    "name": "Jaintpur Est",
    "lat": 25.2917,
    "lng": 88.5333
  },
  "843122": {
    "name": "Hardi (Muzaffarpur)",
    "lat": 25.2917,
    "lng": 88.5333
  },
  "843121": {
    "name": "Dhuli Agricultural College",
    "lat": 25.2917,
    "lng": 88.5333
  },
  "843120": {
    "name": "Deoria",
    "lat": 25.2917,
    "lng": 88.5333
  },
  "843117": {
    "name": "Rampurhari",
    "lat": 25.2917,
    "lng": 88.5333
  },
  "843116": {
    "name": "R K Ashram",
    "lat": 25.2917,
    "lng": 88.5333
  },
  "843115": {
    "name": "Piar",
    "lat": 25.2917,
    "lng": 88.5333
  },
  "843114": {
    "name": "Patepur",
    "lat": 25.2917,
    "lng": 88.5333
  },
  "843113": {
    "name": "Patahi",
    "lat": 25.2917,
    "lng": 88.5333
  },
  "843112": {
    "name": "Paro",
    "lat": 25.2917,
    "lng": 88.5333
  },
  "843109": {
    "name": "Kanti",
    "lat": 25.2917,
    "lng": 88.5333
  },
  "843108": {
    "name": "Kalwari",
    "lat": 25.2917,
    "lng": 88.5333
  },
  "843107": {
    "name": "Gayaspur",
    "lat": 25.2917,
    "lng": 88.5333
  },
  "843106": {
    "name": "Gidha",
    "lat": 25.2917,
    "lng": 88.5333
  },
  "843105": {
    "name": "Dhuli",
    "lat": 25.2917,
    "lng": 88.5333
  },
  "843104": {
    "name": "Chandanpatti",
    "lat": 25.2917,
    "lng": 88.5333
  },
  "843101": {
    "name": "Bakhra",
    "lat": 25.2917,
    "lng": 88.5333
  },
  "842004": {
    "name": "Umanagar",
    "lat": 25.2917,
    "lng": 88.5333
  },
  "842002": {
    "name": "B M P Vi",
    "lat": 25.2917,
    "lng": 88.5333
  },
  "842001": {
    "name": "L S College",
    "lat": 25.2917,
    "lng": 88.5333
  },
  "841506": {
    "name": "Tarwara",
    "lat": 25.0333,
    "lng": 88.45
  },
  "841504": {
    "name": "Raghunathpur (Chapra)",
    "lat": 25.0333,
    "lng": 88.45
  },
  "841443": {
    "name": "Gaura",
    "lat": 25.0333,
    "lng": 88.45
  },
  "841442": {
    "name": "Nagra",
    "lat": 25.0333,
    "lng": 88.45
  },
  "841434": {
    "name": "Goriakothi",
    "lat": 25.0333,
    "lng": 88.45
  },
  "841432": {
    "name": "Jhakhra (Chapra)",
    "lat": 25.0333,
    "lng": 88.45
  },
  "841431": {
    "name": "Pachraur",
    "lat": 25.0333,
    "lng": 88.45
  },
  "841430": {
    "name": "Gawandri",
    "lat": 25.0333,
    "lng": 88.45
  },
  "841424": {
    "name": "Taraiya",
    "lat": 25.0333,
    "lng": 88.45
  },
  "841422": {
    "name": "Sahajitpur",
    "lat": 25.0333,
    "lng": 88.45
  },
  "841421": {
    "name": "Sarharwa",
    "lat": 25.0333,
    "lng": 88.45
  },
  "841420": {
    "name": "Rajapatti",
    "lat": 25.0333,
    "lng": 88.45
  },
  "841413": {
    "name": "Jamo Bazar",
    "lat": 25.0333,
    "lng": 88.45
  },
  "841412": {
    "name": "Jalalpur Bazar",
    "lat": 25.0333,
    "lng": 88.45
  },
  "841411": {
    "name": "Ichwapur",
    "lat": 25.0333,
    "lng": 88.45
  },
  "841404": {
    "name": "Bagaura",
    "lat": 25.0333,
    "lng": 88.45
  },
  "841402": {
    "name": "Aphar",
    "lat": 25.0333,
    "lng": 88.45
  },
  "841401": {
    "name": "Amnour",
    "lat": 25.0333,
    "lng": 88.45
  },
  "841316": {
    "name": "Naini",
    "lat": 25.0333,
    "lng": 88.45
  },
  "841312": {
    "name": "Garibtola",
    "lat": 25.0333,
    "lng": 88.45
  },
  "841311": {
    "name": "Garkha",
    "lat": 25.0333,
    "lng": 88.45
  },
  "841301": {
    "name": "Gandhi Chowk",
    "lat": 25.0333,
    "lng": 88.45
  },
  "841254": {
    "name": "Jaintpur Bharwalia",
    "lat": 25.0333,
    "lng": 88.45
  },
  "841247": {
    "name": "Darihara",
    "lat": 25.0333,
    "lng": 88.45
  },
  "841246": {
    "name": "Bakerganj",
    "lat": 25.0333,
    "lng": 88.45
  },
  "841245": {
    "name": "Zeradei",
    "lat": 25.0333,
    "lng": 88.45
  },
  "841244": {
    "name": "Takipur",
    "lat": 25.0333,
    "lng": 88.45
  },
  "841243": {
    "name": "Sahpur(Siwan)",
    "lat": 25.0333,
    "lng": 88.45
  },
  "841242": {
    "name": "Patarhi",
    "lat": 25.0333,
    "lng": 88.45
  },
  "841241": {
    "name": "Pachrukhi",
    "lat": 25.0333,
    "lng": 88.45
  },
  "841240": {
    "name": "Mahual Mahal",
    "lat": 25.0333,
    "lng": 88.45
  },
  "841239": {
    "name": "Mairwa",
    "lat": 25.0333,
    "lng": 88.45
  },
  "841238": {
    "name": "Maharajganj",
    "lat": 25.0333,
    "lng": 88.45
  },
  "841237": {
    "name": "Hussainganj",
    "lat": 25.0333,
    "lng": 88.45
  },
  "841236": {
    "name": "Hasanpura",
    "lat": 25.0333,
    "lng": 88.45
  },
  "841234": {
    "name": "Darouli (Chapra)",
    "lat": 25.0333,
    "lng": 88.45
  },
  "841233": {
    "name": "Daronda",
    "lat": 25.0333,
    "lng": 88.45
  },
  "841231": {
    "name": "Andar",
    "lat": 25.0333,
    "lng": 88.45
  },
  "841226": {
    "name": "Agrawaltoli",
    "lat": 25.0333,
    "lng": 88.45
  },
  "841224": {
    "name": "Panditpur",
    "lat": 25.0333,
    "lng": 88.45
  },
  "841220": {
    "name": "Parsagarh",
    "lat": 25.0333,
    "lng": 88.45
  },
  "841219": {
    "name": "Parsa",
    "lat": 25.0333,
    "lng": 88.45
  },
  "841218": {
    "name": "Paiga",
    "lat": 25.0333,
    "lng": 88.45
  },
  "841217": {
    "name": "Nayagaon(Chapra)",
    "lat": 25.0333,
    "lng": 88.45
  },
  "841216": {
    "name": "Naraon",
    "lat": 25.0333,
    "lng": 88.45
  },
  "841215": {
    "name": "Maker",
    "lat": 25.0333,
    "lng": 88.45
  },
  "841212": {
    "name": "Jogia",
    "lat": 25.0333,
    "lng": 88.45
  },
  "841211": {
    "name": "Gultenganj",
    "lat": 25.0333,
    "lng": 88.45
  },
  "841210": {
    "name": "Gangpur Siswan",
    "lat": 25.0333,
    "lng": 88.45
  },
  "841208": {
    "name": "Ekma",
    "lat": 25.0333,
    "lng": 88.45
  },
  "841206": {
    "name": "Dayalpur",
    "lat": 25.0333,
    "lng": 88.45
  },
  "841205": {
    "name": "Daudpur (Chapra)",
    "lat": 25.0333,
    "lng": 88.45
  },
  "841204": {
    "name": "Chainwa",
    "lat": 25.0333,
    "lng": 88.45
  },
  "841203": {
    "name": "Chainpur (Chapra)",
    "lat": 25.0333,
    "lng": 88.45
  },
  "841105": {
    "name": "Tarwa Mangarpal",
    "lat": 25.0333,
    "lng": 88.45
  },
  "835306": {
    "name": "Bhandra",
    "lat": 23.35,
    "lng": 84.8
  },
  "835305": {
    "name": "Kisko",
    "lat": 23.3917,
    "lng": 84.7417
  },
  "835304": {
    "name": "Senha",
    "lat": 23.3917,
    "lng": 84.7417
  },
  "835302": {
    "name": "Lohardaga",
    "lat": 23.4333,
    "lng": 84.6833
  },
  "835301": {
    "name": "Itki",
    "lat": 23.3917,
    "lng": 84.7417
  },
  "835244": {
    "name": "Lapung",
    "lat": 22.9817,
    "lng": 84.655
  },
  "835242": {
    "name": "Nagar",
    "lat": 22.9817,
    "lng": 84.655
  },
  "835239": {
    "name": "Chanho",
    "lat": 23.15,
    "lng": 84.5333
  },
  "835238": {
    "name": "Irba",
    "lat": 23.15,
    "lng": 84.5333
  },
  "835235": {
    "name": "Irba",
    "lat": 23.15,
    "lng": 84.5333
  },
  "835234": {
    "name": "Gobindpur",
    "lat": 23.15,
    "lng": 84.5333
  },
  "835233": {
    "name": "Toto",
    "lat": 23.15,
    "lng": 84.5333
  },
  "835232": {
    "name": "Nawagarh",
    "lat": 23.15,
    "lng": 84.5333
  },
  "835230": {
    "name": "Noadih",
    "lat": 23.15,
    "lng": 84.5333
  },
  "835229": {
    "name": "Basia",
    "lat": 22.8833,
    "lng": 84.8333
  },
  "835228": {
    "name": "Biru",
    "lat": 22.6833,
    "lng": 84.55
  },
  "835227": {
    "name": "Torpa",
    "lat": 22.85,
    "lng": 84.6633
  },
  "835226": {
    "name": "Thethaitanagar",
    "lat": 22.85,
    "lng": 84.6633
  },
  "835225": {
    "name": "Tamar",
    "lat": 22.85,
    "lng": 84.6633
  },
  "835224": {
    "name": "Sisai",
    "lat": 23.1833,
    "lng": 84.7667
  },
  "835223": {
    "name": "Simdega",
    "lat": 22.6167,
    "lng": 84.5167
  },
  "835221": {
    "name": "R K Mission",
    "lat": 22.85,
    "lng": 84.6633
  },
  "835220": {
    "name": "Palkot",
    "lat": 22.8833,
    "lng": 84.65
  },
  "835219": {
    "name": "Ormanjhi",
    "lat": 23.25,
    "lng": 84.5944
  },
  "835218": {
    "name": "Netarhat",
    "lat": 23.4833,
    "lng": 84.2667
  },
  "835214": {
    "name": "Mandar",
    "lat": 23.25,
    "lng": 84.5944
  },
  "835213": {
    "name": "Kuru",
    "lat": 23.55,
    "lng": 84.8167
  },
  "835212": {
    "name": "Kurdeg",
    "lat": 23.25,
    "lng": 84.5944
  },
  "835211": {
    "name": "Kolebira",
    "lat": 22.7167,
    "lng": 84.7
  },
  "835209": {
    "name": "Karra",
    "lat": 22.6667,
    "lng": 84.9167
  },
  "835208": {
    "name": "Ghagra",
    "lat": 22.6667,
    "lng": 84.9167
  },
  "835207": {
    "name": "Gumla Ho.",
    "lat": 22.6667,
    "lng": 84.9167
  },
  "835206": {
    "name": "Chainpur (Ranchi)",
    "lat": 22.6667,
    "lng": 84.9167
  },
  "835201": {
    "name": "Bano",
    "lat": 22.6667,
    "lng": 84.9167
  },
  "835104": {
    "name": "Bermo",
    "lat": 23.05,
    "lng": 84.6694
  },
  "835103": {
    "name": "Tatisilwai",
    "lat": 23.05,
    "lng": 84.6694
  },
  "834012": {
    "name": "Harmu Housing Colony",
    "lat": 22.7583,
    "lng": 85.3728
  },
  "834011": {
    "name": "Hatia Railway Colony",
    "lat": 22.7583,
    "lng": 85.3728
  },
  "834010": {
    "name": "Namkum",
    "lat": 22.7583,
    "lng": 85.3728
  },
  "834009": {
    "name": "Ranchi Medical College",
    "lat": 22.7583,
    "lng": 85.3728
  },
  "834008": {
    "name": "Ranchi University",
    "lat": 22.7583,
    "lng": 85.3728
  },
  "834007": {
    "name": "Ranchi Veternary College",
    "lat": 22.7583,
    "lng": 85.3728
  },
  "834006": {
    "name": "Kanke",
    "lat": 22.7583,
    "lng": 85.3728
  },
  "834005": {
    "name": "Hehal",
    "lat": 22.7583,
    "lng": 85.3728
  },
  "834004": {
    "name": "Dhurwa",
    "lat": 22.7583,
    "lng": 85.3728
  },
  "834003": {
    "name": "Hatia",
    "lat": 22.7583,
    "lng": 85.3728
  },
  "834002": {
    "name": "Hinoo Ho.",
    "lat": 22.7583,
    "lng": 85.3728
  },
  "834001": {
    "name": "Ranchi Ho.",
    "lat": 22.7583,
    "lng": 85.3728
  },
  "833326": {
    "name": "Tapin",
    "lat": 22.4742,
    "lng": 85.5545
  },
  "833233": {
    "name": "Meghahatuburu",
    "lat": 22.39,
    "lng": 85.67
  },
  "833222": {
    "name": "Kriburu Base Camp",
    "lat": 22.8,
    "lng": 85.9667
  },
  "833221": {
    "name": "Barajamda",
    "lat": 22.8,
    "lng": 85.9667
  },
  "833220": {
    "name": "Sini",
    "lat": 22.8,
    "lng": 85.9667
  },
  "833219": {
    "name": "Sarai Kela",
    "lat": 22.175,
    "lng": 85.4583
  },
  "833218": {
    "name": "Noamundi Bazar",
    "lat": 22.175,
    "lng": 85.4583
  },
  "833217": {
    "name": "Noamundi",
    "lat": 22.15,
    "lng": 85.5333
  },
  "833216": {
    "name": "Kharswagarh",
    "lat": 22.175,
    "lng": 85.4583
  },
  "833215": {
    "name": "Jhinkpani",
    "lat": 22.175,
    "lng": 85.4583
  },
  "833214": {
    "name": "Hatgamharia",
    "lat": 22.175,
    "lng": 85.4583
  },
  "833213": {
    "name": "Gua",
    "lat": 22.2,
    "lng": 85.3833
  },
  "833212": {
    "name": "Danguaposi",
    "lat": 22.175,
    "lng": 85.4583
  },
  "833203": {
    "name": "Jagannathpur",
    "lat": 22.2333,
    "lng": 85.65
  },
  "833202": {
    "name": "Tata College Chaibasa",
    "lat": 22.4,
    "lng": 85.7333
  },
  "833201": {
    "name": "Chaibasa Ho.",
    "lat": 22.5667,
    "lng": 85.8167
  },
  "833106": {
    "name": "Chiria",
    "lat": 22.3,
    "lng": 85.2667
  },
  "833105": {
    "name": "Sonua",
    "lat": 22.6,
    "lng": 85.4667
  },
  "833104": {
    "name": "Manoharpur",
    "lat": 22.3833,
    "lng": 85.2
  },
  "833103": {
    "name": "Goilkera",
    "lat": 22.5333,
    "lng": 85.3833
  },
  "833102": {
    "name": "Chakradharpur",
    "lat": 22.7,
    "lng": 85.6333
  },
  "833101": {
    "name": "Amda",
    "lat": 22.75,
    "lng": 85.8
  },
  "832403": {
    "name": "Tirukdih",
    "lat": 22.9083,
    "lng": 86.05
  },
  "832402": {
    "name": "Kandra",
    "lat": 22.85,
    "lng": 86.05
  },
  "832401": {
    "name": "Chandil",
    "lat": 22.9667,
    "lng": 86.05
  },
  "832304": {
    "name": "Mahulia",
    "lat": 22.65,
    "lng": 86.4
  },
  "832303": {
    "name": "Ghatshila",
    "lat": 22.6,
    "lng": 86.4833
  },
  "832302": {
    "name": "Dhalbhum Garh",
    "lat": 22.625,
    "lng": 86.4417
  },
  "832301": {
    "name": "Chakkulia",
    "lat": 22.625,
    "lng": 86.4417
  },
  "832113": {
    "name": "Rajnagar",
    "lat": 22.2833,
    "lng": 86.7167
  },
  "832112": {
    "name": "Gobindpur(Singhbhum)",
    "lat": 22.2833,
    "lng": 86.7167
  },
  "832110": {
    "name": "Azad Nagar",
    "lat": 22.2833,
    "lng": 86.7167
  },
  "832109": {
    "name": "Adityapura Ind. Area",
    "lat": 22.2833,
    "lng": 86.7167
  },
  "832108": {
    "name": "Gamharia (Chaibasa)",
    "lat": 22.2833,
    "lng": 86.7167
  },
  "832107": {
    "name": "Sundernagar",
    "lat": 22.2833,
    "lng": 86.7167
  },
  "832106": {
    "name": "Rakha Copper Project",
    "lat": 22.2833,
    "lng": 86.7167
  },
  "832105": {
    "name": "Patamda",
    "lat": 22.2833,
    "lng": 86.7167
  },
  "832104": {
    "name": "Mosabani Mines",
    "lat": 22.2833,
    "lng": 86.7167
  },
  "832103": {
    "name": "Moubhandar",
    "lat": 22.2833,
    "lng": 86.7167
  },
  "832101": {
    "name": "Baharagora",
    "lat": 22.2833,
    "lng": 86.7167
  },
  "831018": {
    "name": "M.G. College",
    "lat": 22.8167,
    "lng": 86.1667
  },
  "831017": {
    "name": "Baridhi Colony",
    "lat": 22.8167,
    "lng": 86.1667
  },
  "831016": {
    "name": "Rahragora",
    "lat": 22.8167,
    "lng": 86.1667
  },
  "831015": {
    "name": "Gobindpur Housing Colony",
    "lat": 22.8167,
    "lng": 86.1667
  },
  "831014": {
    "name": "R.I.T. Jamshedpur",
    "lat": 22.8167,
    "lng": 86.1667
  },
  "831013": {
    "name": "Adityapur",
    "lat": 22.8167,
    "lng": 86.1667
  },
  "831012": {
    "name": "Mango",
    "lat": 22.8167,
    "lng": 86.1667
  },
  "831011": {
    "name": "Sonari",
    "lat": 22.8167,
    "lng": 86.1667
  },
  "831010": {
    "name": "Telco Gms Office",
    "lat": 22.8167,
    "lng": 86.1667
  },
  "831009": {
    "name": "Agrico",
    "lat": 22.7667,
    "lng": 86.1833
  },
  "831008": {
    "name": "Indra Nagar",
    "lat": 22.7667,
    "lng": 86.1833
  },
  "831007": {
    "name": "Burma Mines",
    "lat": 22.7667,
    "lng": 86.1833
  },
  "831006": {
    "name": "Jugsalai",
    "lat": 22.7667,
    "lng": 86.1833
  },
  "831005": {
    "name": "Kadma",
    "lat": 22.7667,
    "lng": 86.1833
  },
  "831004": {
    "name": "Telco Works",
    "lat": 22.7667,
    "lng": 86.1833
  },
  "831003": {
    "name": "Golmuri",
    "lat": 22.7667,
    "lng": 86.1833
  },
  "831002": {
    "name": "Tata Nagar",
    "lat": 22.7667,
    "lng": 86.1833
  },
  "831001": {
    "name": "Jamshedpur Ho.",
    "lat": 22.7667,
    "lng": 86.1833
  },
  "829317": {
    "name": "Karma",
    "lat": 24.2333,
    "lng": 85.2333
  },
  "829211": {
    "name": "Gomia",
    "lat": 23.75,
    "lng": 84.5
  },
  "829210": {
    "name": "Dakra Colliery",
    "lat": 23.75,
    "lng": 84.5
  },
  "829207": {
    "name": "Latehar R.S.",
    "lat": 23.75,
    "lng": 84.5
  },
  "829206": {
    "name": "Latehar",
    "lat": 23.75,
    "lng": 84.5
  },
  "829204": {
    "name": "Chipadohar",
    "lat": 23.75,
    "lng": 84.5
  },
  "829203": {
    "name": "Chandwa (Daltonganj)",
    "lat": 23.75,
    "lng": 84.5
  },
  "829202": {
    "name": "Balunmath",
    "lat": 23.75,
    "lng": 84.5
  },
  "829201": {
    "name": "Bachra",
    "lat": 23.75,
    "lng": 84.5
  },
  "829149": {
    "name": "T.T.P.S. Lalpani",
    "lat": 23.6708,
    "lng": 85.5875
  },
  "829146": {
    "name": "Bhareet Nagar",
    "lat": 23.6708,
    "lng": 85.5875
  },
  "829145": {
    "name": "Sirka",
    "lat": 23.6708,
    "lng": 85.5875
  },
  "829144": {
    "name": "Phusru Bazar",
    "lat": 23.6708,
    "lng": 85.5875
  },
  "829143": {
    "name": "Balkudra",
    "lat": 23.6708,
    "lng": 85.5875
  },
  "829141": {
    "name": "Champi",
    "lat": 23.6708,
    "lng": 85.5875
  },
  "829138": {
    "name": "Tantri",
    "lat": 23.7333,
    "lng": 85.675
  },
  "829135": {
    "name": "Bhurkunda",
    "lat": 23.65,
    "lng": 85.35
  },
  "829134": {
    "name": "Sarubera",
    "lat": 23.8167,
    "lng": 86.0
  },
  "829131": {
    "name": "Sikh Regimental Centre",
    "lat": 23.7333,
    "lng": 85.675
  },
  "829130": {
    "name": "Punjab Regimental Centre",
    "lat": 23.7333,
    "lng": 85.675
  },
  "829129": {
    "name": "Tenughat Dam Project",
    "lat": 23.6708,
    "lng": 85.5875
  },
  "829128": {
    "name": "Swang Colliery",
    "lat": 23.6708,
    "lng": 85.5875
  },
  "829127": {
    "name": "Sunday Bazar",
    "lat": 23.6708,
    "lng": 85.5875
  },
  "829126": {
    "name": "Sounda Colliery",
    "lat": 23.6708,
    "lng": 85.5875
  },
  "829125": {
    "name": "Sayal",
    "lat": 23.6708,
    "lng": 85.5875
  },
  "829124": {
    "name": "Religarha",
    "lat": 23.6708,
    "lng": 85.5875
  },
  "829122": {
    "name": "Ramgarh Cantt. Ho.",
    "lat": 23.6708,
    "lng": 85.5875
  },
  "829121": {
    "name": "Peterbar",
    "lat": 23.6708,
    "lng": 85.5875
  },
  "829120": {
    "name": "Patratu Diesal Colony",
    "lat": 23.6708,
    "lng": 85.5875
  },
  "829119": {
    "name": "Patratu Thermal Power",
    "lat": 23.6083,
    "lng": 85.5
  },
  "829118": {
    "name": "Patratu",
    "lat": 23.6667,
    "lng": 85.2833
  },
  "829117": {
    "name": "Marar",
    "lat": 23.6083,
    "lng": 85.5
  },
  "829116": {
    "name": "Kathara",
    "lat": 23.6083,
    "lng": 85.5
  },
  "829115": {
    "name": "Kasmar",
    "lat": 23.6083,
    "lng": 85.5
  },
  "829114": {
    "name": "Jaridih Bazar",
    "lat": 23.6083,
    "lng": 85.5
  },
  "829113": {
    "name": "Jarangdih Colliery",
    "lat": 23.6083,
    "lng": 85.5
  },
  "829112": {
    "name": "Indian Explosive Gomia",
    "lat": 23.6083,
    "lng": 85.5
  },
  "829110": {
    "name": "Gola",
    "lat": 23.55,
    "lng": 85.7167
  },
  "829109": {
    "name": "Giddi Colliery",
    "lat": 23.6708,
    "lng": 85.5875
  },
  "829108": {
    "name": "Giddi",
    "lat": 23.6708,
    "lng": 85.5875
  },
  "829106": {
    "name": "Bhurkunda Bazar",
    "lat": 23.6708,
    "lng": 85.5875
  },
  "829105": {
    "name": "Bhadani Nagar",
    "lat": 23.6708,
    "lng": 85.5875
  },
  "829103": {
    "name": "Barkakhana Nt",
    "lat": 23.6708,
    "lng": 85.5875
  },
  "829102": {
    "name": "Barkakhana",
    "lat": 23.6708,
    "lng": 85.5875
  },
  "829101": {
    "name": "Argada",
    "lat": 23.6708,
    "lng": 85.5875
  },
  "828504": {
    "name": "Mugma",
    "lat": 23.7667,
    "lng": 86.7333
  },
  "828404": {
    "name": "Dugda Coal Washery",
    "lat": 23.9,
    "lng": 86.2
  },
  "828403": {
    "name": "Chandrapura",
    "lat": 23.9,
    "lng": 86.2
  },
  "828402": {
    "name": "Topchanchi",
    "lat": 23.9,
    "lng": 86.2
  },
  "828311": {
    "name": "Amlabad Colliery",
    "lat": 23.7111,
    "lng": 86.3833
  },
  "828308": {
    "name": "Bhatdih",
    "lat": 23.7111,
    "lng": 86.3833
  },
  "828307": {
    "name": "Nudkhurkee",
    "lat": 23.7111,
    "lng": 86.3833
  },
  "828306": {
    "name": "Nawagarh",
    "lat": 23.7111,
    "lng": 86.3833
  },
  "828305": {
    "name": "Mohuda",
    "lat": 23.7111,
    "lng": 86.3833
  },
  "828304": {
    "name": "Malkera",
    "lat": 23.7833,
    "lng": 86.3
  },
  "828303": {
    "name": "Bhojudih",
    "lat": 23.6333,
    "lng": 86.45
  },
  "828302": {
    "name": "Bhowra",
    "lat": 23.7167,
    "lng": 86.4
  },
  "828301": {
    "name": "Bhaga",
    "lat": 23.7111,
    "lng": 86.3833
  },
  "828207": {
    "name": "Maithandam",
    "lat": 23.7667,
    "lng": 86.3935
  },
  "828206": {
    "name": "Pancher Dam",
    "lat": 23.7667,
    "lng": 86.3935
  },
  "828205": {
    "name": "Nisachatti",
    "lat": 23.7667,
    "lng": 86.3935
  },
  "828204": {
    "name": "Muhamma",
    "lat": 23.7667,
    "lng": 86.3935
  },
  "828203": {
    "name": "Kumardhubi",
    "lat": 23.7667,
    "lng": 86.3935
  },
  "828202": {
    "name": "Chirkunda",
    "lat": 23.7667,
    "lng": 86.3935
  },
  "828144": {
    "name": "Tisra",
    "lat": 23.9833,
    "lng": 86.45
  },
  "828142": {
    "name": "Tundi",
    "lat": 23.9833,
    "lng": 86.45
  },
  "828135": {
    "name": "Chasnala",
    "lat": 23.6667,
    "lng": 86.4333
  },
  "828134": {
    "name": "Chandankiari",
    "lat": 23.6917,
    "lng": 86.425
  },
  "828133": {
    "name": "Bhulan Barari",
    "lat": 23.6917,
    "lng": 86.425
  },
  "828131": {
    "name": "Lodna",
    "lat": 23.7167,
    "lng": 86.4167
  },
  "828129": {
    "name": "Munidih",
    "lat": 23.7333,
    "lng": 86.3556
  },
  "828128": {
    "name": "Tundu",
    "lat": 23.7833,
    "lng": 86.25
  },
  "828127": {
    "name": "Sarai Dhela",
    "lat": 23.7333,
    "lng": 86.3556
  },
  "828126": {
    "name": "Sudamadih",
    "lat": 23.7333,
    "lng": 86.3556
  },
  "828125": {
    "name": "Sonardih",
    "lat": 23.7333,
    "lng": 86.3556
  },
  "828123": {
    "name": "Sindri Institute",
    "lat": 23.7333,
    "lng": 86.3556
  },
  "828122": {
    "name": "Sindri",
    "lat": 23.6333,
    "lng": 86.5
  },
  "828121": {
    "name": "Sijua",
    "lat": 23.7833,
    "lng": 86.3167
  },
  "828120": {
    "name": "Moti Nagar",
    "lat": 23.7333,
    "lng": 86.3556
  },
  "828119": {
    "name": "Patherdih",
    "lat": 23.7333,
    "lng": 86.4
  },
  "828117": {
    "name": "Kustone",
    "lat": 23.7333,
    "lng": 86.4
  },
  "828116": {
    "name": "Kusunda",
    "lat": 23.7667,
    "lng": 86.3833
  },
  "828115": {
    "name": "Khasjeenagora",
    "lat": 23.7333,
    "lng": 86.4
  },
  "828114": {
    "name": "Katras Bazar",
    "lat": 23.7333,
    "lng": 86.4
  },
  "828113": {
    "name": "Katras Garh",
    "lat": 23.7333,
    "lng": 86.4
  },
  "828112": {
    "name": "Jamadoba",
    "lat": 23.7167,
    "lng": 86.4
  },
  "828111": {
    "name": "Jharia",
    "lat": 23.75,
    "lng": 86.4
  },
  "828110": {
    "name": "Jealgora",
    "lat": 23.7,
    "lng": 86.4167
  },
  "828109": {
    "name": "Gobindpur",
    "lat": 23.8333,
    "lng": 86.5167
  },
  "828108": {
    "name": "Fuel Research Institute",
    "lat": 23.8333,
    "lng": 86.3444
  },
  "828107": {
    "name": "Domgarh",
    "lat": 23.8333,
    "lng": 86.3444
  },
  "828106": {
    "name": "Dhansar",
    "lat": 23.8333,
    "lng": 86.3444
  },
  "828104": {
    "name": "Bhuli",
    "lat": 23.8333,
    "lng": 86.3444
  },
  "828103": {
    "name": "Bhelatand",
    "lat": 23.8333,
    "lng": 86.3444
  },
  "828102": {
    "name": "Bhagabandh",
    "lat": 23.8333,
    "lng": 86.3444
  },
  "828101": {
    "name": "Gomoh",
    "lat": 23.8667,
    "lng": 86.1667
  },
  "827014": {
    "name": "Balidih",
    "lat": 23.6333,
    "lng": 86.1667
  },
  "827013": {
    "name": "Chas",
    "lat": 23.6333,
    "lng": 86.1667
  },
  "827012": {
    "name": "Bokaro Steel City",
    "lat": 23.6333,
    "lng": 86.1667
  },
  "827011": {
    "name": "Bokaro Steel City So",
    "lat": 23.6333,
    "lng": 86.1667
  },
  "827010": {
    "name": "Bokaro Steel City Rs",
    "lat": 23.6333,
    "lng": 86.1667
  },
  "827009": {
    "name": "Sector Ix Dhanbad",
    "lat": 23.6333,
    "lng": 86.1667
  },
  "827004": {
    "name": "Sector Iv Dhanbad",
    "lat": 23.6333,
    "lng": 86.1667
  },
  "827003": {
    "name": "Herla Sector Iii",
    "lat": 23.6333,
    "lng": 86.1667
  },
  "827001": {
    "name": "Bokaro Steel City Ho.",
    "lat": 23.6333,
    "lng": 86.1667
  },
  "826004": {
    "name": "Indian School Of Mines (Ism)",
    "lat": 23.908,
    "lng": 85.4865
  },
  "826003": {
    "name": "Jagjivan Nagar",
    "lat": 23.908,
    "lng": 85.4865
  },
  "826001": {
    "name": "Dhanbad Ho.",
    "lat": 23.908,
    "lng": 85.4865
  },
  "825421": {
    "name": "Chandwara",
    "lat": 24.3,
    "lng": 85.2778
  },
  "825420": {
    "name": "Hunerganj",
    "lat": 24.3,
    "lng": 85.2778
  },
  "825418": {
    "name": "Domchanch Bazar",
    "lat": 24.2,
    "lng": 85.3667
  },
  "825413": {
    "name": "Tilaiyadam",
    "lat": 24.2,
    "lng": 85.3667
  },
  "825412": {
    "name": "Rajdhanwar",
    "lat": 24.2,
    "lng": 85.3667
  },
  "825411": {
    "name": "Padma",
    "lat": 24.2,
    "lng": 85.3667
  },
  "825410": {
    "name": "Kodarama",
    "lat": 24.2,
    "lng": 85.3667
  },
  "825409": {
    "name": "Jhumri Tilaiya",
    "lat": 24.4333,
    "lng": 85.5167
  },
  "825408": {
    "name": "Itkhori",
    "lat": 24.2833,
    "lng": 85.1667
  },
  "825407": {
    "name": "Domchanch",
    "lat": 24.4833,
    "lng": 85.7
  },
  "825406": {
    "name": "Chauparan",
    "lat": 24.3833,
    "lng": 85.25
  },
  "825405": {
    "name": "Barhi",
    "lat": 24.3,
    "lng": 85.4167
  },
  "825404": {
    "name": "Pratappur",
    "lat": 24.3125,
    "lng": 85.2667
  },
  "825403": {
    "name": "Jori",
    "lat": 24.3167,
    "lng": 84.8
  },
  "825402": {
    "name": "Ichak",
    "lat": 24.0833,
    "lng": 85.4167
  },
  "825401": {
    "name": "Chatra",
    "lat": 24.2167,
    "lng": 84.8667
  },
  "825336": {
    "name": "Charhi",
    "lat": 23.85,
    "lng": 85.45
  },
  "825335": {
    "name": "Pelawal",
    "lat": 23.85,
    "lng": 85.45
  },
  "825332": {
    "name": "Bagodar",
    "lat": 23.85,
    "lng": 85.45
  },
  "825330": {
    "name": "Topa",
    "lat": 23.85,
    "lng": 85.45
  },
  "825329": {
    "name": "Shikohabad",
    "lat": 23.7833,
    "lng": 85.475
  },
  "825327": {
    "name": "Jharpo",
    "lat": 23.7833,
    "lng": 85.475
  },
  "825325": {
    "name": "Kedla",
    "lat": 23.7833,
    "lng": 85.475
  },
  "825324": {
    "name": "Jai Nagar (Hazaribagh))",
    "lat": 23.7833,
    "lng": 85.475
  },
  "825321": {
    "name": "Tandwa (Hazaribag)",
    "lat": 23.7833,
    "lng": 85.475
  },
  "825320": {
    "name": "Suriya",
    "lat": 23.7833,
    "lng": 85.475
  },
  "825319": {
    "name": "Reformatory School",
    "lat": 23.7167,
    "lng": 85.5
  },
  "825318": {
    "name": "Palaunjia",
    "lat": 23.7167,
    "lng": 85.5
  },
  "825317": {
    "name": "Bsf Meerut",
    "lat": 23.7167,
    "lng": 85.5
  },
  "825316": {
    "name": "Kuju",
    "lat": 23.7167,
    "lng": 85.5
  },
  "825315": {
    "name": "Konar Dam",
    "lat": 23.7167,
    "lng": 85.5
  },
  "825314": {
    "name": "Ghatotand",
    "lat": 23.7167,
    "lng": 85.5
  },
  "825313": {
    "name": "Daroo",
    "lat": 23.7167,
    "lng": 85.5
  },
  "825301": {
    "name": "Hazaribagh Ho.",
    "lat": 23.7833,
    "lng": 85.475
  },
  "825223": {
    "name": "Barkatha",
    "lat": 24.1048,
    "lng": 85.3345
  },
  "825108": {
    "name": "Pirtand",
    "lat": 23.7333,
    "lng": 85.4111
  },
  "825107": {
    "name": "Ishri Bazar",
    "lat": 23.7333,
    "lng": 85.4111
  },
  "825103": {
    "name": "Simaria",
    "lat": 24.0667,
    "lng": 84.9333
  },
  "825102": {
    "name": "Dhori",
    "lat": 23.7333,
    "lng": 85.4111
  },
  "825101": {
    "name": "Chitarpur",
    "lat": 23.5667,
    "lng": 85.65
  },
  "824303": {
    "name": "Nabinagar Rd",
    "lat": 22.3333,
    "lng": 74.1167
  },
  "824302": {
    "name": "Tandwa(Gaya)",
    "lat": 22.3333,
    "lng": 74.1167
  },
  "824301": {
    "name": "Nabinagar",
    "lat": 22.3333,
    "lng": 74.1167
  },
  "824237": {
    "name": "Cherki",
    "lat": 22.3333,
    "lng": 74.1167
  },
  "824236": {
    "name": "Tekari",
    "lat": 22.3333,
    "lng": 74.1167
  },
  "824234": {
    "name": "Magadh University",
    "lat": 22.3333,
    "lng": 74.1167
  },
  "824232": {
    "name": "Fatehpur (Gaya)",
    "lat": 22.3333,
    "lng": 74.1167
  },
  "824217": {
    "name": "Bankey Bazar",
    "lat": 22.3333,
    "lng": 74.1167
  },
  "824211": {
    "name": "Gola Bazar Sherghati",
    "lat": 22.3333,
    "lng": 74.1167
  },
  "824209": {
    "name": "Paraiya",
    "lat": 22.3333,
    "lng": 74.1167
  },
  "824208": {
    "name": "Madanpur (Gaya)",
    "lat": 22.3333,
    "lng": 74.1167
  },
  "824206": {
    "name": "Imamganj",
    "lat": 22.3333,
    "lng": 74.1167
  },
  "824202": {
    "name": "Deo",
    "lat": 22.3333,
    "lng": 74.1167
  },
  "824201": {
    "name": "Barachatti",
    "lat": 22.3333,
    "lng": 74.1167
  },
  "824127": {
    "name": "Kaler",
    "lat": 22.3333,
    "lng": 74.1167
  },
  "824126": {
    "name": "Anti",
    "lat": 22.3333,
    "lng": 74.1167
  },
  "824125": {
    "name": "Rafiganj",
    "lat": 22.3333,
    "lng": 74.1167
  },
  "824124": {
    "name": "Obra",
    "lat": 22.3333,
    "lng": 74.1167
  },
  "824122": {
    "name": "Jakhim",
    "lat": 22.3333,
    "lng": 74.1167
  },
  "824121": {
    "name": "Jamhore",
    "lat": 22.3333,
    "lng": 74.1167
  },
  "824120": {
    "name": "Haspura",
    "lat": 22.3333,
    "lng": 74.1167
  },
  "824119": {
    "name": "Harihar Ganj",
    "lat": 22.3333,
    "lng": 74.1167
  },
  "824114": {
    "name": "Deohara",
    "lat": 22.3333,
    "lng": 74.1167
  },
  "824113": {
    "name": "Daudnagar",
    "lat": 22.3333,
    "lng": 74.1167
  },
  "824111": {
    "name": "Amba",
    "lat": 22.3333,
    "lng": 74.1167
  },
  "823005": {
    "name": "Asc Centre (Gaya)",
    "lat": 24.8667,
    "lng": 92.35
  },
  "823004": {
    "name": "Gaya",
    "lat": 24.8667,
    "lng": 92.35
  },
  "823002": {
    "name": "Gaya R S",
    "lat": 24.8667,
    "lng": 92.35
  },
  "823001": {
    "name": "Karimganj",
    "lat": 24.8667,
    "lng": 92.35
  },
  "822141": {
    "name": "Rajhara",
    "lat": 24.1833,
    "lng": 84.0333
  },
  "822138": {
    "name": "Manjhiaon",
    "lat": 24.1167,
    "lng": 84.1238
  },
  "822133": {
    "name": "Chinanki",
    "lat": 24.1167,
    "lng": 84.1238
  },
  "822131": {
    "name": "Shahpur(Daltonganj)",
    "lat": 24.1167,
    "lng": 84.1238
  },
  "822129": {
    "name": "Bhawnathpur Township",
    "lat": 24.1042,
    "lng": 84.1333
  },
  "822128": {
    "name": "Ramna",
    "lat": 24.25,
    "lng": 83.6
  },
  "822127": {
    "name": "Mandal",
    "lat": 24.1042,
    "lng": 84.1333
  },
  "822126": {
    "name": "Satbarwa",
    "lat": 23.9167,
    "lng": 84.2667
  },
  "822125": {
    "name": "Rankaraj",
    "lat": 24.1042,
    "lng": 84.1333
  },
  "822124": {
    "name": "Rahala",
    "lat": 24.1042,
    "lng": 84.1333
  },
  "822123": {
    "name": "Patan",
    "lat": 24.2167,
    "lng": 84.1833
  },
  "822122": {
    "name": "Panki",
    "lat": 24.0333,
    "lng": 84.4833
  },
  "822121": {
    "name": "Nagaruntari",
    "lat": 24.1042,
    "lng": 84.1333
  },
  "822120": {
    "name": "Mohammedganj",
    "lat": 24.1042,
    "lng": 84.1333
  },
  "822119": {
    "name": "Mahuadand",
    "lat": 24.1083,
    "lng": 84.15
  },
  "822118": {
    "name": "Lestinganj",
    "lat": 24.1083,
    "lng": 84.15
  },
  "822116": {
    "name": "Japla",
    "lat": 24.1083,
    "lng": 84.15
  },
  "822115": {
    "name": "Hyder Nagar",
    "lat": 24.1083,
    "lng": 84.15
  },
  "822114": {
    "name": "Garhwa",
    "lat": 24.1083,
    "lng": 84.15
  },
  "822113": {
    "name": "Chhatarpur",
    "lat": 24.3833,
    "lng": 84.1833
  },
  "822112": {
    "name": "Bhawnathpur",
    "lat": 24.1083,
    "lng": 84.15
  },
  "822111": {
    "name": "Barwadih",
    "lat": 23.8333,
    "lng": 84.1167
  },
  "822110": {
    "name": "Rajchainpur",
    "lat": 24.1083,
    "lng": 84.15
  },
  "822102": {
    "name": "Daltonganj College",
    "lat": 24.1167,
    "lng": 84.1238
  },
  "822101": {
    "name": "Daltonganj Ho.",
    "lat": 24.1167,
    "lng": 84.1238
  },
  "821317": {
    "name": "Nauhatta (Baulia)",
    "lat": 23.908,
    "lng": 85.4865
  },
  "821316": {
    "name": "Karwandia",
    "lat": 23.908,
    "lng": 85.4865
  },
  "821312": {
    "name": "Tilouthu",
    "lat": 23.908,
    "lng": 85.4865
  },
  "821310": {
    "name": "Haiharganj",
    "lat": 23.908,
    "lng": 85.4865
  },
  "821309": {
    "name": "Kachwa",
    "lat": 23.908,
    "lng": 85.4865
  },
  "821308": {
    "name": "Indrapuri",
    "lat": 23.908,
    "lng": 85.4865
  },
  "821307": {
    "name": "B M P Camp",
    "lat": 23.908,
    "lng": 85.4865
  },
  "821306": {
    "name": "Darihat",
    "lat": 23.908,
    "lng": 85.4865
  },
  "821305": {
    "name": "Dalmianagar",
    "lat": 23.908,
    "lng": 85.4865
  },
  "821303": {
    "name": "Banjari",
    "lat": 23.908,
    "lng": 85.4865
  },
  "821302": {
    "name": "Amjhore",
    "lat": 23.908,
    "lng": 85.4865
  },
  "821301": {
    "name": "Akhouri Bazar",
    "lat": 23.908,
    "lng": 85.4865
  },
  "821125": {
    "name": "Nauhatta(Sasaram)",
    "lat": 23.908,
    "lng": 85.4865
  },
  "821119": {
    "name": "Darouli (Rohtas)",
    "lat": 23.908,
    "lng": 85.4865
  },
  "821116": {
    "name": "Adhaura",
    "lat": 23.908,
    "lng": 85.4865
  },
  "821115": {
    "name": "Sasaram Bazar",
    "lat": 23.908,
    "lng": 85.4865
  },
  "821113": {
    "name": "Takia",
    "lat": 23.908,
    "lng": 85.4865
  },
  "821110": {
    "name": "Ramgarh(Arrah)",
    "lat": 23.908,
    "lng": 85.4865
  },
  "821106": {
    "name": "Hatta",
    "lat": 23.908,
    "lng": 85.4865
  },
  "821104": {
    "name": "Chenari",
    "lat": 23.908,
    "lng": 85.4865
  },
  "821103": {
    "name": "Chainpur (Sasaram)",
    "lat": 23.908,
    "lng": 85.4865
  },
  "816129": {
    "name": "Talijhari",
    "lat": 24.1167,
    "lng": 87.45
  },
  "816125": {
    "name": "Haripur Barikadarjua",
    "lat": 24.1167,
    "lng": 87.45
  },
  "816124": {
    "name": "Mohulpahari",
    "lat": 24.1167,
    "lng": 87.45
  },
  "816123": {
    "name": "Asanbani",
    "lat": 24.1167,
    "lng": 87.45
  },
  "816122": {
    "name": "Jhikarhatti",
    "lat": 24.1167,
    "lng": 87.45
  },
  "816121": {
    "name": "Littipara",
    "lat": 24.1167,
    "lng": 87.45
  },
  "816120": {
    "name": "Boria",
    "lat": 24.1167,
    "lng": 87.45
  },
  "816119": {
    "name": "Pathana",
    "lat": 24.3333,
    "lng": 87.65
  },
  "816117": {
    "name": "Pakuria",
    "lat": 24.3333,
    "lng": 87.65
  },
  "816116": {
    "name": "Tinpahar Rs",
    "lat": 24.3333,
    "lng": 87.65
  },
  "816115": {
    "name": "Sakrigalighat",
    "lat": 24.3333,
    "lng": 87.65
  },
  "816109": {
    "name": "Sahibganj",
    "lat": 25.25,
    "lng": 87.65
  },
  "816108": {
    "name": "Rajmahal",
    "lat": 24.75,
    "lng": 87.6875
  },
  "816107": {
    "name": "Pakaur",
    "lat": 24.75,
    "lng": 87.6875
  },
  "816106": {
    "name": "Maheshpurraj",
    "lat": 24.75,
    "lng": 87.6875
  },
  "816105": {
    "name": "Kotalpakur",
    "lat": 24.75,
    "lng": 87.6875
  },
  "816104": {
    "name": "Hiranpur",
    "lat": 24.7,
    "lng": 87.7
  },
  "816103": {
    "name": "Benagaria",
    "lat": 24.1833,
    "lng": 87.6167
  },
  "816102": {
    "name": "Barahait",
    "lat": 24.75,
    "lng": 87.6875
  },
  "816101": {
    "name": "Barharwa",
    "lat": 24.8667,
    "lng": 87.7833
  },
  "815359": {
    "name": "Kundhait",
    "lat": 24.1444,
    "lng": 86.7611
  },
  "815357": {
    "name": "Karogram",
    "lat": 24.1444,
    "lng": 86.7611
  },
  "815356": {
    "name": "Sarath",
    "lat": 24.2333,
    "lng": 86.8333
  },
  "815355": {
    "name": "Nala",
    "lat": 24.1444,
    "lng": 86.7611
  },
  "815354": {
    "name": "Mihijam",
    "lat": 24.1444,
    "lng": 86.7611
  },
  "815353": {
    "name": "Madhupur",
    "lat": 24.25,
    "lng": 86.65
  },
  "815352": {
    "name": "Karmatand",
    "lat": 24.1444,
    "lng": 86.7611
  },
  "815351": {
    "name": "Jamtara",
    "lat": 23.95,
    "lng": 86.8
  },
  "815317": {
    "name": "Tisri",
    "lat": 24.1444,
    "lng": 86.7611
  },
  "815316": {
    "name": "Pachamba",
    "lat": 24.1444,
    "lng": 86.7611
  },
  "815315": {
    "name": "Mirzaganj",
    "lat": 24.1444,
    "lng": 86.7611
  },
  "815314": {
    "name": "Kharagdiha",
    "lat": 24.1444,
    "lng": 86.7611
  },
  "815313": {
    "name": "Ganwan",
    "lat": 24.1444,
    "lng": 86.7611
  },
  "815312": {
    "name": "Bengabad",
    "lat": 24.1444,
    "lng": 86.7611
  },
  "815311": {
    "name": "Beniadih",
    "lat": 24.1444,
    "lng": 86.7611
  },
  "815301": {
    "name": "Bhandaridah",
    "lat": 24.1444,
    "lng": 86.7611
  },
  "814166": {
    "name": "Fatehpur(Dumka)",
    "lat": 24.5222,
    "lng": 85.4722
  },
  "814165": {
    "name": "Lalmatia Colleiry",
    "lat": 24.5222,
    "lng": 85.4722
  },
  "814162": {
    "name": "Jama",
    "lat": 24.5222,
    "lng": 85.4722
  },
  "814158": {
    "name": "Guhiajore",
    "lat": 24.4833,
    "lng": 86.65
  },
  "814156": {
    "name": "Sarauni Bazar",
    "lat": 24.4833,
    "lng": 86.65
  },
  "814154": {
    "name": "Mahagama",
    "lat": 24.4833,
    "lng": 86.65
  },
  "814152": {
    "name": "Rohini",
    "lat": 24.4833,
    "lng": 86.65
  },
  "814151": {
    "name": "Saraiyahat",
    "lat": 24.4833,
    "lng": 86.65
  },
  "814150": {
    "name": "Sarwan",
    "lat": 23.4833,
    "lng": 74.8167
  },
  "814148": {
    "name": "Raghunathpur",
    "lat": 26.0333,
    "lng": 76.9667
  },
  "814147": {
    "name": "Pathargama",
    "lat": 24.675,
    "lng": 84.9194
  },
  "814146": {
    "name": "Palojori",
    "lat": 24.675,
    "lng": 84.9194
  },
  "814145": {
    "name": "Nunihat",
    "lat": 24.4833,
    "lng": 87.1333
  },
  "814144": {
    "name": "Massanjore",
    "lat": 24.675,
    "lng": 84.9194
  },
  "814143": {
    "name": "Kunda",
    "lat": 24.2167,
    "lng": 84.6667
  },
  "814142": {
    "name": "Jasidih",
    "lat": 24.5167,
    "lng": 86.65
  },
  "814141": {
    "name": "Jarmundi",
    "lat": 24.4,
    "lng": 87.05
  },
  "814133": {
    "name": "Godda",
    "lat": 24.5222,
    "lng": 85.4722
  },
  "814131": {
    "name": "Chandan",
    "lat": 24.5222,
    "lng": 85.4722
  },
  "814120": {
    "name": "Ghorawal",
    "lat": 24.5222,
    "lng": 85.4722
  },
  "814119": {
    "name": "Kurwa",
    "lat": 24.5333,
    "lng": 87.5667
  },
  "814118": {
    "name": "Basukinath Dham",
    "lat": 24.5333,
    "lng": 87.5667
  },
  "814117": {
    "name": "Talisman Bilasi",
    "lat": 24.5333,
    "lng": 87.5667
  },
  "814116": {
    "name": "Satsang",
    "lat": 24.5333,
    "lng": 87.5667
  },
  "814114": {
    "name": "Deo Sang Bompas Tower",
    "lat": 24.5333,
    "lng": 87.5667
  },
  "814113": {
    "name": "Deoghar College",
    "lat": 24.5333,
    "lng": 87.5667
  },
  "814112": {
    "name": "Baidyanath Deoghar Ho.",
    "lat": 24.5333,
    "lng": 87.5667
  },
  "814111": {
    "name": "Amrapara",
    "lat": 24.5333,
    "lng": 87.5667
  },
  "814103": {
    "name": "Kathikund",
    "lat": 23.6333,
    "lng": 85.5167
  },
  "814102": {
    "name": "Ramgarh",
    "lat": 23.6333,
    "lng": 85.5167
  },
  "814101": {
    "name": "S P College",
    "lat": 23.6333,
    "lng": 85.5167
  },
  "813233": {
    "name": "Fatehpur (Bhagalpur)",
    "lat": 21.6833,
    "lng": 72.2833
  },
  "813231": {
    "name": "Maheshmunda (Bhagalpur)",
    "lat": 21.6833,
    "lng": 72.2833
  },
  "813228": {
    "name": "Tilakpur",
    "lat": 21.6833,
    "lng": 72.2833
  },
  "813226": {
    "name": "Tarar(Bhagalpur)",
    "lat": 21.6833,
    "lng": 72.2833
  },
  "813223": {
    "name": "Akbar Nagar",
    "lat": 21.6833,
    "lng": 72.2833
  },
  "813221": {
    "name": "Tarapur",
    "lat": 21.6833,
    "lng": 72.2833
  },
  "813212": {
    "name": "Sangrampur(Bhagalpur)",
    "lat": 21.6833,
    "lng": 72.2833
  },
  "813210": {
    "name": "S S College",
    "lat": 21.6833,
    "lng": 72.2833
  },
  "813206": {
    "name": "Ishipur",
    "lat": 21.6833,
    "lng": 72.2833
  },
  "813205": {
    "name": "Ghogha",
    "lat": 21.6833,
    "lng": 72.2833
  },
  "813204": {
    "name": "Ekchari",
    "lat": 21.6833,
    "lng": 72.2833
  },
  "813201": {
    "name": "Asarganj",
    "lat": 21.6833,
    "lng": 72.2833
  },
  "813117": {
    "name": "Bagduma",
    "lat": 21.6833,
    "lng": 72.2833
  },
  "813107": {
    "name": "Raja Un",
    "lat": 21.6833,
    "lng": 72.2833
  },
  "813106": {
    "name": "Katoria",
    "lat": 21.6833,
    "lng": 72.2833
  },
  "813105": {
    "name": "Jagdishpur",
    "lat": 21.6833,
    "lng": 72.2833
  },
  "813103": {
    "name": "Barahat",
    "lat": 21.6833,
    "lng": 72.2833
  },
  "813102": {
    "name": "Banka H O",
    "lat": 21.6833,
    "lng": 72.2833
  },
  "813101": {
    "name": "Amarpur",
    "lat": 21.6833,
    "lng": 72.2833
  },
  "812007": {
    "name": "T N B College",
    "lat": 24.3298,
    "lng": 85.6667
  },
  "812006": {
    "name": "Nathnagar",
    "lat": 24.3298,
    "lng": 85.6667
  },
  "812005": {
    "name": "Aliganj",
    "lat": 24.3298,
    "lng": 85.6667
  },
  "812004": {
    "name": "Champanagar",
    "lat": 24.3298,
    "lng": 85.6667
  },
  "812003": {
    "name": "Barari",
    "lat": 24.3298,
    "lng": 85.6667
  },
  "812002": {
    "name": "Tatarpur",
    "lat": 24.3298,
    "lng": 85.6667
  },
  "812001": {
    "name": "Ishaquchak",
    "lat": 24.3298,
    "lng": 85.6667
  },
  "811313": {
    "name": "Mallehpur",
    "lat": 24.3298,
    "lng": 85.6667
  },
  "811312": {
    "name": "Lakshmipur",
    "lat": 24.3298,
    "lng": 85.6667
  },
  "811311": {
    "name": "Chittaranjan Rd",
    "lat": 24.3298,
    "lng": 85.6667
  },
  "811309": {
    "name": "Kajra",
    "lat": 24.3298,
    "lng": 85.6667
  },
  "811308": {
    "name": "Jhajha",
    "lat": 24.3298,
    "lng": 85.6667
  },
  "811307": {
    "name": "Jamui",
    "lat": 24.3298,
    "lng": 85.6667
  },
  "811305": {
    "name": "Gidhaur",
    "lat": 24.3298,
    "lng": 85.6667
  },
  "811304": {
    "name": "Chewara",
    "lat": 24.3298,
    "lng": 85.6667
  },
  "811303": {
    "name": "Chakar",
    "lat": 24.3298,
    "lng": 85.6667
  },
  "811302": {
    "name": "Barahiya",
    "lat": 24.3298,
    "lng": 85.6667
  },
  "811301": {
    "name": "Aliganj",
    "lat": 24.3298,
    "lng": 85.6667
  },
  "811214": {
    "name": "Jamalpur Sadar Bazar",
    "lat": 24.3298,
    "lng": 85.6667
  },
  "811213": {
    "name": "Havelikharagpur",
    "lat": 24.3298,
    "lng": 85.6667
  },
  "811212": {
    "name": "Dharhara (Monghyr)",
    "lat": 24.3298,
    "lng": 85.6667
  },
  "811201": {
    "name": "Lal Darwaza",
    "lat": 24.3298,
    "lng": 85.6667
  },
  "811111": {
    "name": "Teus",
    "lat": 24.3298,
    "lng": 85.6667
  },
  "811104": {
    "name": "Sarmera",
    "lat": 24.3298,
    "lng": 85.6667
  },
  "799290": {
    "name": "Fatikroy",
    "lat": 24.139,
    "lng": 91.7716
  },
  "799289": {
    "name": "Ambassa",
    "lat": 24.2,
    "lng": 91.8333
  },
  "799288": {
    "name": "Kanchanbari",
    "lat": 24.2,
    "lng": 91.8333
  },
  "799287": {
    "name": "Manikbhandar",
    "lat": 24.2,
    "lng": 91.8333
  },
  "799286": {
    "name": "Halahali",
    "lat": 24.2,
    "lng": 91.8333
  },
  "799285": {
    "name": "Kamalpur",
    "lat": 24.2,
    "lng": 91.8333
  },
  "799279": {
    "name": "Paiturbazar",
    "lat": 24.3333,
    "lng": 92.0167
  },
  "799278": {
    "name": "Salema",
    "lat": 24.3333,
    "lng": 92.0167
  },
  "799277": {
    "name": "Kailashahar",
    "lat": 24.3333,
    "lng": 92.0167
  },
  "799275": {
    "name": "Manughat",
    "lat": 24.3333,
    "lng": 92.0167
  },
  "799273": {
    "name": "Chaileng",
    "lat": 24.3333,
    "lng": 92.0167
  },
  "799271": {
    "name": "Dasdabazar",
    "lat": 24.3333,
    "lng": 92.0167
  },
  "799270": {
    "name": "Kanchanpur",
    "lat": 24.3333,
    "lng": 92.0167
  },
  "799269": {
    "name": "Jampuri",
    "lat": 24.139,
    "lng": 91.7716
  },
  "799265": {
    "name": "Machmara",
    "lat": 24.139,
    "lng": 91.7716
  },
  "799264": {
    "name": "Kumarghat",
    "lat": 24.139,
    "lng": 91.7716
  },
  "799263": {
    "name": "Pecharthal",
    "lat": 24.139,
    "lng": 91.7716
  },
  "799262": {
    "name": "Churaib",
    "lat": 24.139,
    "lng": 91.7716
  },
  "799261": {
    "name": "Kadamtala",
    "lat": 24.139,
    "lng": 91.7716
  },
  "799260": {
    "name": "Panisagar",
    "lat": 24.139,
    "lng": 91.7716
  },
  "799252": {
    "name": "Bagbassa",
    "lat": 24.139,
    "lng": 91.7716
  },
  "799251": {
    "name": "Chandrap",
    "lat": 24.139,
    "lng": 91.7716
  },
  "799250": {
    "name": "Dharma Nagar H O",
    "lat": 24.139,
    "lng": 91.7716
  },
  "799214": {
    "name": "Fatikcherra",
    "lat": 24.139,
    "lng": 91.7716
  },
  "799213": {
    "name": "Simna",
    "lat": 24.139,
    "lng": 91.7716
  },
  "799212": {
    "name": "Sidhai",
    "lat": 24.139,
    "lng": 91.7716
  },
  "799211": {
    "name": "Mohanpur",
    "lat": 24.139,
    "lng": 91.7716
  },
  "799210": {
    "name": "Kamalghat",
    "lat": 24.139,
    "lng": 91.7716
  },
  "799206": {
    "name": "Bachaibari",
    "lat": 24.0112,
    "lng": 91.6182
  },
  "799205": {
    "name": "Teliamura",
    "lat": 24.0112,
    "lng": 91.6182
  },
  "799204": {
    "name": "Kulaibazar",
    "lat": 24.0112,
    "lng": 91.6182
  },
  "799203": {
    "name": "Kalyanpur",
    "lat": 23.9225,
    "lng": 91.6031
  },
  "799202": {
    "name": "Khowai Court",
    "lat": 24.0112,
    "lng": 91.6182
  },
  "799201": {
    "name": "Khowai",
    "lat": 24.1,
    "lng": 91.6333
  },
  "799159": {
    "name": "Matai",
    "lat": 23.2528,
    "lng": 91.4514
  },
  "799158": {
    "name": "Rajnagar",
    "lat": 23.2528,
    "lng": 91.4514
  },
  "799157": {
    "name": "Anandapur",
    "lat": 23.2528,
    "lng": 91.4514
  },
  "799156": {
    "name": "Rishyamukh",
    "lat": 23.2528,
    "lng": 91.4514
  },
  "799155": {
    "name": "Beloniya",
    "lat": 23.2528,
    "lng": 91.4514
  },
  "799153": {
    "name": "Radhanagar",
    "lat": 23.2528,
    "lng": 91.4514
  },
  "799149": {
    "name": "Satchand",
    "lat": 23.0,
    "lng": 91.7319
  },
  "799148": {
    "name": "Baikara",
    "lat": 23.0,
    "lng": 91.7319
  },
  "799147": {
    "name": "Jalefa Bazar",
    "lat": 23.0,
    "lng": 91.7319
  },
  "799146": {
    "name": "Kalsibazar",
    "lat": 23.0,
    "lng": 91.7319
  },
  "799145": {
    "name": "Sabroom",
    "lat": 23.0,
    "lng": 91.7319
  },
  "799144": {
    "name": "Santirbazar",
    "lat": 23.0,
    "lng": 91.7319
  },
  "799143": {
    "name": "Manubazar",
    "lat": 23.0,
    "lng": 91.7319
  },
  "799142": {
    "name": "Muhuripur",
    "lat": 23.0,
    "lng": 91.7319
  },
  "799141": {
    "name": "Jolaibari",
    "lat": 23.0,
    "lng": 91.7319
  },
  "799132": {
    "name": "Kathalia",
    "lat": 23.3167,
    "lng": 91.3167
  },
  "799131": {
    "name": "Sunamura",
    "lat": 23.3167,
    "lng": 91.3167
  },
  "799130": {
    "name": "Sekerkote",
    "lat": 23.3167,
    "lng": 91.3167
  },
  "799125": {
    "name": "Salgarh",
    "lat": 23.3166,
    "lng": 91.5056
  },
  "799123": {
    "name": "Jamjuri",
    "lat": 23.3166,
    "lng": 91.5056
  },
  "799122": {
    "name": "Matabari",
    "lat": 23.3166,
    "lng": 91.5056
  },
  "799121": {
    "name": "Maharani",
    "lat": 23.3166,
    "lng": 91.5056
  },
  "799120": {
    "name": "Udaipur Court",
    "lat": 23.3166,
    "lng": 91.5056
  },
  "799119": {
    "name": "Bagma",
    "lat": 23.3166,
    "lng": 91.5056
  },
  "799115": {
    "name": "Melagarh",
    "lat": 23.3166,
    "lng": 91.5056
  },
  "799109": {
    "name": "Zirjhamukha",
    "lat": 23.5067,
    "lng": 91.514
  },
  "799108": {
    "name": "Ampinagar",
    "lat": 23.5067,
    "lng": 91.514
  },
  "799107": {
    "name": "Charilam",
    "lat": 23.5067,
    "lng": 91.514
  },
  "799106": {
    "name": "Boxa Nagar",
    "lat": 23.5067,
    "lng": 91.514
  },
  "799105": {
    "name": "Kakraban",
    "lat": 23.4833,
    "lng": 91.3833
  },
  "799104": {
    "name": "Gumti Project",
    "lat": 23.5067,
    "lng": 91.514
  },
  "799103": {
    "name": "Bisramaganj",
    "lat": 23.5067,
    "lng": 91.514
  },
  "799102": {
    "name": "Bishalgarh",
    "lat": 23.5067,
    "lng": 91.514
  },
  "799101": {
    "name": "Amarpur",
    "lat": 23.53,
    "lng": 91.6447
  },
  "799055": {
    "name": "Tripura Engg College",
    "lat": 23.6167,
    "lng": 91.3667
  },
  "799045": {
    "name": "Birendra Nagar",
    "lat": 23.6167,
    "lng": 91.3667
  },
  "799035": {
    "name": "Ranirbazar",
    "lat": 23.6167,
    "lng": 91.3667
  },
  "799015": {
    "name": "Bimangarh",
    "lat": 23.6167,
    "lng": 91.3667
  },
  "799012": {
    "name": "Salbagan",
    "lat": 23.6167,
    "lng": 91.3667
  },
  "799011": {
    "name": "Barjala",
    "lat": 23.6167,
    "lng": 91.3667
  },
  "799010": {
    "name": "Jogendranagar",
    "lat": 23.6167,
    "lng": 91.3667
  },
  "799009": {
    "name": "Agartala Airport",
    "lat": 23.6167,
    "lng": 91.3667
  },
  "799008": {
    "name": "Khayaspur",
    "lat": 23.6167,
    "lng": 91.3667
  },
  "799007": {
    "name": "Dhaleswar",
    "lat": 23.6167,
    "lng": 91.3667
  },
  "799006": {
    "name": "Kunjaban",
    "lat": 23.6167,
    "lng": 91.3667
  },
  "799005": {
    "name": "Abhaynagar",
    "lat": 23.6167,
    "lng": 91.3667
  },
  "799004": {
    "name": "Agartala College",
    "lat": 23.6167,
    "lng": 91.3667
  },
  "799003": {
    "name": "Arundhuti Nagar",
    "lat": 23.6167,
    "lng": 91.3667
  },
  "799002": {
    "name": "Ramnagar",
    "lat": 23.6167,
    "lng": 91.3667
  },
  "799001": {
    "name": "Agartala Secretariat",
    "lat": 23.6167,
    "lng": 91.3667
  },
  "798632": {
    "name": "Sungra",
    "lat": 26.3333,
    "lng": 94.7458
  },
  "798631": {
    "name": "Chukitong",
    "lat": 26.3333,
    "lng": 94.7458
  },
  "798630": {
    "name": "Kobulong",
    "lat": 26.3333,
    "lng": 94.7458
  },
  "798629": {
    "name": "Sutakha",
    "lat": 26.3583,
    "lng": 94.8083
  },
  "798628": {
    "name": "Meraring",
    "lat": 26.3583,
    "lng": 94.8083
  },
  "798627": {
    "name": "Atoizu",
    "lat": 26.3583,
    "lng": 94.8083
  },
  "798626": {
    "name": "Aghunoto",
    "lat": 26.3583,
    "lng": 94.8083
  },
  "798623": {
    "name": "Paper Nagar Tuli",
    "lat": 26.3583,
    "lng": 94.8083
  },
  "798622": {
    "name": "Naginamara",
    "lat": 26.3583,
    "lng": 94.8083
  },
  "798621": {
    "name": "Mon",
    "lat": 26.75,
    "lng": 95.1
  },
  "798620": {
    "name": "Zunheboto",
    "lat": 25.9667,
    "lng": 94.5167
  },
  "798619": {
    "name": "Akolato",
    "lat": 26.2833,
    "lng": 94.8333
  },
  "798618": {
    "name": "Tuli",
    "lat": 26.2833,
    "lng": 94.8333
  },
  "798617": {
    "name": "Ongpangkong",
    "lat": 26.2833,
    "lng": 94.8333
  },
  "798616": {
    "name": "Longkhim",
    "lat": 26.2833,
    "lng": 94.8333
  },
  "798615": {
    "name": "Impur",
    "lat": 26.2833,
    "lng": 94.8333
  },
  "798614": {
    "name": "Chuchyemlong",
    "lat": 26.2833,
    "lng": 94.8333
  },
  "798613": {
    "name": "Changtongia",
    "lat": 26.2833,
    "lng": 94.8333
  },
  "798612": {
    "name": "Tuensang",
    "lat": 26.2833,
    "lng": 94.8333
  },
  "798611": {
    "name": "Kiphira",
    "lat": 26.2833,
    "lng": 94.8333
  },
  "798601": {
    "name": "Mokokchung",
    "lat": 26.3333,
    "lng": 94.5333
  },
  "797127": {
    "name": "Viswama",
    "lat": 25.8583,
    "lng": 94.2
  },
  "797126": {
    "name": "Zubza",
    "lat": 25.8583,
    "lng": 94.2
  },
  "797125": {
    "name": "Zakhama",
    "lat": 25.8583,
    "lng": 94.2
  },
  "797124": {
    "name": "Sugar Mill Project",
    "lat": 25.8583,
    "lng": 94.2
  },
  "797123": {
    "name": "Rangapahar",
    "lat": 25.8583,
    "lng": 94.2
  },
  "797122": {
    "name": "Pherima",
    "lat": 25.8583,
    "lng": 94.2
  },
  "797121": {
    "name": "Piphema",
    "lat": 25.8583,
    "lng": 94.2
  },
  "797112": {
    "name": "Dimapur",
    "lat": 26.1,
    "lng": 94.2667
  },
  "797111": {
    "name": "Wokha",
    "lat": 26.1,
    "lng": 94.2667
  },
  "797110": {
    "name": "Zalukei",
    "lat": 26.1,
    "lng": 94.2667
  },
  "797109": {
    "name": "Tseminyu",
    "lat": 25.9333,
    "lng": 94.2333
  },
  "797108": {
    "name": "Phek",
    "lat": 25.7778,
    "lng": 94.1778
  },
  "797107": {
    "name": "Pfutserro",
    "lat": 25.7778,
    "lng": 94.1778
  },
  "797106": {
    "name": "Ghaspani",
    "lat": 25.7667,
    "lng": 93.9
  },
  "797105": {
    "name": "Cheichema",
    "lat": 25.7778,
    "lng": 94.1778
  },
  "797104": {
    "name": "Chazouba",
    "lat": 25.7778,
    "lng": 94.1778
  },
  "797103": {
    "name": "Chumukhedima",
    "lat": 25.7778,
    "lng": 94.1778
  },
  "797102": {
    "name": "Chizami",
    "lat": 25.6333,
    "lng": 94.4
  },
  "797101": {
    "name": "Birema",
    "lat": 25.7778,
    "lng": 94.1778
  },
  "797001": {
    "name": "Kohima H O",
    "lat": 25.8583,
    "lng": 94.2
  },
  "796901": {
    "name": "Saiha",
    "lat": 22.4833,
    "lng": 92.9667
  },
  "796770": {
    "name": "Chawngte",
    "lat": 22.9,
    "lng": 92.5944
  },
  "796751": {
    "name": "Demagiri",
    "lat": 22.9167,
    "lng": 92.4667
  },
  "796730": {
    "name": "Lungsen",
    "lat": 22.9,
    "lng": 92.5833
  },
  "796710": {
    "name": "Bunghmun",
    "lat": 22.9,
    "lng": 92.5944
  },
  "796701": {
    "name": "Lunglei",
    "lat": 22.8833,
    "lng": 92.7333
  },
  "796691": {
    "name": "Zotlang",
    "lat": 23.8333,
    "lng": 92.4833
  },
  "796629": {
    "name": "Deomali",
    "lat": 23.8333,
    "lng": 92.4833
  },
  "796571": {
    "name": "Hnahthial",
    "lat": 23.4056,
    "lng": 92.6931
  },
  "796471": {
    "name": "Lakhicherra",
    "lat": 23.8,
    "lng": 92.6667
  },
  "796441": {
    "name": "Mumit",
    "lat": 23.8,
    "lng": 92.6667
  },
  "796410": {
    "name": "Sairang",
    "lat": 23.8,
    "lng": 92.6667
  },
  "796370": {
    "name": "Lungdar",
    "lat": 23.6167,
    "lng": 92.6
  },
  "796321": {
    "name": "Champai",
    "lat": 23.6167,
    "lng": 92.6
  },
  "796310": {
    "name": "Khawzawl",
    "lat": 23.6167,
    "lng": 92.6
  },
  "796290": {
    "name": "Ngopa",
    "lat": 23.6833,
    "lng": 92.6667
  },
  "796261": {
    "name": "Saitual",
    "lat": 23.9667,
    "lng": 92.5833
  },
  "796230": {
    "name": "Sialsuk",
    "lat": 23.4,
    "lng": 92.75
  },
  "796190": {
    "name": "Aibawk",
    "lat": 23.6583,
    "lng": 92.8667
  },
  "796181": {
    "name": "Serchhip",
    "lat": 23.3,
    "lng": 92.8333
  },
  "796161": {
    "name": "Thingsulthliah",
    "lat": 23.6583,
    "lng": 92.8667
  },
  "796111": {
    "name": "Darlawn",
    "lat": 24.0167,
    "lng": 92.9
  },
  "796101": {
    "name": "Vairengte",
    "lat": 23.6583,
    "lng": 92.8667
  },
  "796081": {
    "name": "Kolasib",
    "lat": 23.75,
    "lng": 92.75
  },
  "796070": {
    "name": "Kawnpur",
    "lat": 23.75,
    "lng": 92.75
  },
  "796031": {
    "name": "Sihphir",
    "lat": 23.75,
    "lng": 92.75
  },
  "796025": {
    "name": "Dustlang",
    "lat": 23.75,
    "lng": 92.75
  },
  "796017": {
    "name": "Zemabawk",
    "lat": 23.75,
    "lng": 92.75
  },
  "796015": {
    "name": "Tlaingnuam",
    "lat": 23.75,
    "lng": 92.75
  },
  "796012": {
    "name": "Ramhlun",
    "lat": 23.75,
    "lng": 92.75
  },
  "796009": {
    "name": "Vaivakaan",
    "lat": 23.75,
    "lng": 92.75
  },
  "796007": {
    "name": "Chandmari",
    "lat": 23.75,
    "lng": 92.75
  },
  "796005": {
    "name": "Kulikawn",
    "lat": 23.75,
    "lng": 92.75
  },
  "796001": {
    "name": "Aizawl H O",
    "lat": 23.75,
    "lng": 92.75
  },
  "795158": {
    "name": "Ching Kompong",
    "lat": 25.5,
    "lng": 94.1333
  },
  "795151": {
    "name": "Kangla Tongbi",
    "lat": 25.5,
    "lng": 94.1333
  },
  "795150": {
    "name": "Mao",
    "lat": 25.5,
    "lng": 94.1333
  },
  "795147": {
    "name": "Nungba",
    "lat": 24.75,
    "lng": 93.4333
  },
  "795146": {
    "name": "Lumsung",
    "lat": 24.7733,
    "lng": 93.7033
  },
  "795145": {
    "name": "Tusen",
    "lat": 24.7733,
    "lng": 93.7033
  },
  "795144": {
    "name": "Tengnoupal",
    "lat": 24.7733,
    "lng": 93.7033
  },
  "795143": {
    "name": "Thanlon",
    "lat": 24.2833,
    "lng": 93.2833
  },
  "795142": {
    "name": "Ukhrul",
    "lat": 25.1167,
    "lng": 94.3667
  },
  "795141": {
    "name": "Tamenglong",
    "lat": 24.9667,
    "lng": 93.55
  },
  "795140": {
    "name": "Tulihal",
    "lat": 24.75,
    "lng": 93.8833
  },
  "795139": {
    "name": "Thingat",
    "lat": 24.5833,
    "lng": 93.8889
  },
  "795138": {
    "name": "Thoubal",
    "lat": 24.6333,
    "lng": 94.0167
  },
  "795137": {
    "name": "Singjamaibazar",
    "lat": 24.5833,
    "lng": 93.8889
  },
  "795136": {
    "name": "Sekmai",
    "lat": 24.5833,
    "lng": 93.8889
  },
  "795135": {
    "name": "Parrel",
    "lat": 24.5833,
    "lng": 93.8889
  },
  "795134": {
    "name": "Nambol",
    "lat": 24.5833,
    "lng": 93.8889
  },
  "795133": {
    "name": "Moirang",
    "lat": 24.5,
    "lng": 93.7667
  },
  "795132": {
    "name": "Mayang Imphal",
    "lat": 24.6167,
    "lng": 93.8833
  },
  "795131": {
    "name": "Moreh",
    "lat": 24.5833,
    "lng": 93.8889
  },
  "795130": {
    "name": "Lilong",
    "lat": 24.5833,
    "lng": 93.8889
  },
  "795129": {
    "name": "Kongpokpi",
    "lat": 24.6944,
    "lng": 93.7944
  },
  "795128": {
    "name": "Churachandpur",
    "lat": 24.3333,
    "lng": 93.6667
  },
  "795127": {
    "name": "Chendel",
    "lat": 24.6944,
    "lng": 93.7944
  },
  "795126": {
    "name": "Bishenpur",
    "lat": 24.6333,
    "lng": 93.7667
  },
  "795125": {
    "name": "Tamel",
    "lat": 24.6944,
    "lng": 93.7944
  },
  "795124": {
    "name": "Loktak Project",
    "lat": 24.6944,
    "lng": 93.7944
  },
  "795123": {
    "name": "Wongoi",
    "lat": 24.6944,
    "lng": 93.7944
  },
  "795122": {
    "name": "Kalapahar",
    "lat": 25.1167,
    "lng": 93.95
  },
  "795121": {
    "name": "K K Prampat",
    "lat": 24.6944,
    "lng": 93.7944
  },
  "795120": {
    "name": "Hiyangthang",
    "lat": 24.6944,
    "lng": 93.7944
  },
  "795116": {
    "name": "Jiribam",
    "lat": 24.8512,
    "lng": 93.8464
  },
  "795115": {
    "name": "Gulerthal",
    "lat": 24.8512,
    "lng": 93.8464
  },
  "795106": {
    "name": "Karong",
    "lat": 25.3,
    "lng": 94.05
  },
  "795105": {
    "name": "Maram",
    "lat": 25.4167,
    "lng": 94.1
  },
  "795104": {
    "name": "Tadubi",
    "lat": 25.3583,
    "lng": 94.075
  },
  "795103": {
    "name": "Kakching Bazar",
    "lat": 25.3583,
    "lng": 94.075
  },
  "795102": {
    "name": "Chakpikarong",
    "lat": 25.3583,
    "lng": 94.075
  },
  "795101": {
    "name": "Sugnu",
    "lat": 25.3583,
    "lng": 94.075
  },
  "795011": {
    "name": "Swombung",
    "lat": 24.8512,
    "lng": 93.8464
  },
  "795010": {
    "name": "Samdol",
    "lat": 24.8512,
    "lng": 93.8464
  },
  "795004": {
    "name": "Lamphelpat",
    "lat": 24.8512,
    "lng": 93.8464
  },
  "795003": {
    "name": "J N University",
    "lat": 24.8512,
    "lng": 93.8464
  },
  "795002": {
    "name": "Mantripukhri",
    "lat": 24.8512,
    "lng": 93.8464
  },
  "795001": {
    "name": "D M College",
    "lat": 24.8512,
    "lng": 93.8464
  },
  "794112": {
    "name": "Mandipathar",
    "lat": 25.6,
    "lng": 90.8833
  },
  "794111": {
    "name": "Simsanggiri",
    "lat": 25.6,
    "lng": 90.8833
  },
  "794110": {
    "name": "Rongjeng",
    "lat": 25.6,
    "lng": 90.8833
  },
  "794109": {
    "name": "Tikrikilla",
    "lat": 25.3,
    "lng": 89.85
  },
  "794108": {
    "name": "Resubelpara",
    "lat": 25.3,
    "lng": 89.85
  },
  "794107": {
    "name": "Nangalbibra",
    "lat": 25.3,
    "lng": 89.85
  },
  "794106": {
    "name": "Mahendraganj",
    "lat": 25.3,
    "lng": 89.85
  },
  "794105": {
    "name": "Garobandha",
    "lat": 25.3,
    "lng": 89.85
  },
  "794104": {
    "name": "Fulbari",
    "lat": 25.3,
    "lng": 89.85
  },
  "794103": {
    "name": "Barengapara",
    "lat": 25.3,
    "lng": 89.85
  },
  "794102": {
    "name": "Bagmara",
    "lat": 25.3,
    "lng": 89.85
  },
  "794101": {
    "name": "Araimail",
    "lat": 25.3,
    "lng": 89.85
  },
  "794005": {
    "name": "Dobasipara",
    "lat": 25.45,
    "lng": 90.3667
  },
  "794002": {
    "name": "Lower Chandmari",
    "lat": 25.45,
    "lng": 90.3667
  },
  "794001": {
    "name": "Tura H O",
    "lat": 25.45,
    "lng": 90.3667
  },
  "793150": {
    "name": "Jowai",
    "lat": 25.45,
    "lng": 92.2
  },
  "793122": {
    "name": "Union Christian College",
    "lat": 25.4667,
    "lng": 91.7667
  },
  "793121": {
    "name": "Mawphlang",
    "lat": 25.4667,
    "lng": 91.7667
  },
  "793120": {
    "name": "Moirang",
    "lat": 25.4667,
    "lng": 91.7667
  },
  "793119": {
    "name": "Nongstoin",
    "lat": 25.5167,
    "lng": 91.2667
  },
  "793113": {
    "name": "Mawsynram",
    "lat": 25.3,
    "lng": 91.5833
  },
  "793112": {
    "name": "Shella",
    "lat": 25.3778,
    "lng": 91.5833
  },
  "793111": {
    "name": "Cherrabazar",
    "lat": 25.3778,
    "lng": 91.5833
  },
  "793110": {
    "name": "Pynursla",
    "lat": 25.3167,
    "lng": 91.9
  },
  "793109": {
    "name": "Dawki",
    "lat": 25.6,
    "lng": 91.7917
  },
  "793108": {
    "name": "Cherrapunjee",
    "lat": 25.3,
    "lng": 91.7
  },
  "793107": {
    "name": "Bholaganjbazar",
    "lat": 25.6,
    "lng": 91.7917
  },
  "793106": {
    "name": "Balat",
    "lat": 25.6,
    "lng": 91.7917
  },
  "793105": {
    "name": "Nayabunglow",
    "lat": 25.6,
    "lng": 91.7917
  },
  "793104": {
    "name": "Sumer",
    "lat": 25.6,
    "lng": 91.7917
  },
  "793103": {
    "name": "Barapani",
    "lat": 25.6,
    "lng": 91.7917
  },
  "793102": {
    "name": "Nongpoh",
    "lat": 25.9,
    "lng": 91.8833
  },
  "793101": {
    "name": "Burnihat",
    "lat": 25.6,
    "lng": 91.7917
  },
  "793025": {
    "name": "Governors Camp",
    "lat": 25.4643,
    "lng": 91.7571
  },
  "793021": {
    "name": "Madan Ritting",
    "lat": 25.4643,
    "lng": 91.7571
  },
  "793014": {
    "name": "Nongthymmai",
    "lat": 25.4643,
    "lng": 91.7571
  },
  "793013": {
    "name": "Rilbong",
    "lat": 25.4643,
    "lng": 91.7571
  },
  "793012": {
    "name": "Mawpat",
    "lat": 25.4643,
    "lng": 91.7571
  },
  "793011": {
    "name": "Assam Rifles",
    "lat": 25.4643,
    "lng": 91.7571
  },
  "793010": {
    "name": "Laitkor Peak",
    "lat": 25.4643,
    "lng": 91.7571
  },
  "793009": {
    "name": "Nonglyer",
    "lat": 25.4643,
    "lng": 91.7571
  },
  "793008": {
    "name": "Phudmawri Mawlai",
    "lat": 25.4643,
    "lng": 91.7571
  },
  "793007": {
    "name": "Happy Valley",
    "lat": 25.4643,
    "lng": 91.7571
  },
  "793006": {
    "name": "Umpling",
    "lat": 25.4643,
    "lng": 91.7571
  },
  "793005": {
    "name": "Upper Shillong",
    "lat": 25.4643,
    "lng": 91.7571
  },
  "793004": {
    "name": "Bishnupur",
    "lat": 25.4643,
    "lng": 91.7571
  },
  "793003": {
    "name": "Laitumkhrah",
    "lat": 25.4643,
    "lng": 91.7571
  },
  "793002": {
    "name": "Barabazar",
    "lat": 25.4643,
    "lng": 91.7571
  },
  "793001": {
    "name": "Oakland",
    "lat": 25.4643,
    "lng": 91.7571
  },
  "792123": {
    "name": "Nampong",
    "lat": 27.3,
    "lng": 96.1
  },
  "792122": {
    "name": "Miao",
    "lat": 27.4833,
    "lng": 96.1833
  },
  "792121": {
    "name": "Jairampur",
    "lat": 27.3917,
    "lng": 96.1417
  },
  "792120": {
    "name": "Changlong",
    "lat": 27.3917,
    "lng": 96.1417
  },
  "792111": {
    "name": "Sunpura",
    "lat": 27.8333,
    "lng": 95.8667
  },
  "792110": {
    "name": "Roing",
    "lat": 27.8333,
    "lng": 95.8667
  },
  "792104": {
    "name": "Chowkham",
    "lat": 28.0833,
    "lng": 96.55
  },
  "792103": {
    "name": "Namsai",
    "lat": 28.0833,
    "lng": 96.55
  },
  "792102": {
    "name": "Hayuliang",
    "lat": 28.0833,
    "lng": 96.55
  },
  "792101": {
    "name": "Anini",
    "lat": 28.0833,
    "lng": 96.55
  },
  "792055": {
    "name": "Tuting",
    "lat": 28.9667,
    "lng": 94.8667
  },
  "792051": {
    "name": "Mechuka",
    "lat": 28.9667,
    "lng": 94.8667
  },
  "792001": {
    "name": "Tezu",
    "lat": 27.9167,
    "lng": 96.1667
  },
  "791122": {
    "name": "Daporizo",
    "lat": 27.6333,
    "lng": 93.8333
  },
  "791121": {
    "name": "Kimin",
    "lat": 27.6333,
    "lng": 93.8333
  },
  "791120": {
    "name": "Zero",
    "lat": 27.6333,
    "lng": 93.8333
  },
  "791113": {
    "name": "Banderdewa",
    "lat": 27.15,
    "lng": 93.75
  },
  "791112": {
    "name": "Doimukh",
    "lat": 27.15,
    "lng": 93.75
  },
  "791111": {
    "name": "Itanagar",
    "lat": 27.15,
    "lng": 93.75
  },
  "791104": {
    "name": "Mebo",
    "lat": 28.025,
    "lng": 95.0
  },
  "791103": {
    "name": "Hill Top",
    "lat": 28.025,
    "lng": 95.0
  },
  "791102": {
    "name": "Pasighat",
    "lat": 28.0667,
    "lng": 95.3333
  },
  "791101": {
    "name": "Basar",
    "lat": 27.9833,
    "lng": 94.6667
  },
  "791002": {
    "name": "Yingkiong",
    "lat": 28.1667,
    "lng": 94.7667
  },
  "791001": {
    "name": "Along",
    "lat": 28.1667,
    "lng": 94.7667
  },
  "790115": {
    "name": "Tenga Valley",
    "lat": 27.4583,
    "lng": 92.0667
  },
  "790114": {
    "name": "Bhalukpong",
    "lat": 27.4583,
    "lng": 92.0667
  },
  "790104": {
    "name": "Towang",
    "lat": 27.5833,
    "lng": 91.8667
  },
  "790103": {
    "name": "Seijussa",
    "lat": 27.4583,
    "lng": 92.0667
  },
  "790102": {
    "name": "Seppa",
    "lat": 27.4583,
    "lng": 92.0667
  },
  "790101": {
    "name": "Dirang",
    "lat": 27.3333,
    "lng": 92.2667
  },
  "790002": {
    "name": "Kalaktang",
    "lat": 27.1,
    "lng": 92.1333
  },
  "790001": {
    "name": "Bomdila",
    "lat": 27.25,
    "lng": 92.4
  },
  "788834": {
    "name": "Khejurbond",
    "lat": 25.3222,
    "lng": 93.1333
  },
  "788832": {
    "name": "Langting",
    "lat": 25.5,
    "lng": 93.1167
  },
  "788831": {
    "name": "Maibong",
    "lat": 25.3,
    "lng": 93.1667
  },
  "788830": {
    "name": "Mahur",
    "lat": 25.1667,
    "lng": 93.1167
  },
  "788819": {
    "name": "Haflong",
    "lat": 25.1833,
    "lng": 93.0333
  },
  "788818": {
    "name": "Harangajao",
    "lat": 25.075,
    "lng": 92.8
  },
  "788817": {
    "name": "Behara Bazar",
    "lat": 25.075,
    "lng": 92.8
  },
  "788816": {
    "name": "Jalalpur",
    "lat": 25.075,
    "lng": 92.8
  },
  "788815": {
    "name": "Kalain",
    "lat": 24.9667,
    "lng": 92.5667
  },
  "788814": {
    "name": "Salchopra",
    "lat": 25.075,
    "lng": 92.8
  },
  "788812": {
    "name": "Kalaincherra",
    "lat": 25.075,
    "lng": 92.8
  },
  "788808": {
    "name": "Hilara Colony",
    "lat": 24.9,
    "lng": 92.6
  },
  "788806": {
    "name": "Badarpur",
    "lat": 24.9,
    "lng": 92.6
  },
  "788805": {
    "name": "Katigorah",
    "lat": 24.9,
    "lng": 92.6
  },
  "788803": {
    "name": "Badarpurghat",
    "lat": 24.9,
    "lng": 92.6
  },
  "788802": {
    "name": "Panchgram",
    "lat": 24.9,
    "lng": 92.6
  },
  "788801": {
    "name": "Kalinagar",
    "lat": 24.9,
    "lng": 92.6
  },
  "788790": {
    "name": "Manikganj",
    "lat": 24.75,
    "lng": 92.35
  },
  "788781": {
    "name": "Mahishasan",
    "lat": 24.75,
    "lng": 92.35
  },
  "788737": {
    "name": "Olivacherra",
    "lat": 24.75,
    "lng": 92.35
  },
  "788736": {
    "name": "Dullavcherra",
    "lat": 24.75,
    "lng": 92.35
  },
  "788735": {
    "name": "Retabari",
    "lat": 24.75,
    "lng": 92.35
  },
  "788734": {
    "name": "Anipur",
    "lat": 24.75,
    "lng": 92.35
  },
  "788733": {
    "name": "Bazarghat",
    "lat": 24.75,
    "lng": 92.35
  },
  "788731": {
    "name": "Kanai Bazar",
    "lat": 24.75,
    "lng": 92.35
  },
  "788729": {
    "name": "Lakhi Cherra",
    "lat": 24.75,
    "lng": 92.35
  },
  "788727": {
    "name": "Bazaricherra",
    "lat": 24.75,
    "lng": 92.35
  },
  "788726": {
    "name": "Hatikhira",
    "lat": 24.75,
    "lng": 92.35
  },
  "788725": {
    "name": "Chandkhira",
    "lat": 24.75,
    "lng": 92.35
  },
  "788724": {
    "name": "Patherkandi",
    "lat": 24.75,
    "lng": 92.35
  },
  "788723": {
    "name": "Baroigram",
    "lat": 24.75,
    "lng": 92.35
  },
  "788722": {
    "name": "Nilambazar",
    "lat": 24.75,
    "lng": 92.35
  },
  "788721": {
    "name": "Latu",
    "lat": 24.75,
    "lng": 92.35
  },
  "788720": {
    "name": "Kaliganj Bazar",
    "lat": 24.75,
    "lng": 92.35
  },
  "788719": {
    "name": "Kayasthagram",
    "lat": 24.75,
    "lng": 92.35
  },
  "788716": {
    "name": "Sadarasi",
    "lat": 24.75,
    "lng": 92.35
  },
  "788711": {
    "name": "Karimganj Bazar",
    "lat": 24.75,
    "lng": 92.35
  },
  "788710": {
    "name": "Char Bazar",
    "lat": 24.75,
    "lng": 92.35
  },
  "788708": {
    "name": "Chargola Bazar",
    "lat": 24.75,
    "lng": 92.35
  },
  "788706": {
    "name": "Mahakhal",
    "lat": 24.75,
    "lng": 92.35
  },
  "788705": {
    "name": "Rajartilla",
    "lat": 24.75,
    "lng": 92.35
  },
  "788702": {
    "name": "Srigauri",
    "lat": 24.75,
    "lng": 92.35
  },
  "788169": {
    "name": "Lalamukh",
    "lat": 24.55,
    "lng": 92.6
  },
  "788167": {
    "name": "Vernerpur",
    "lat": 24.55,
    "lng": 92.6
  },
  "788166": {
    "name": "Ramkrishnanagar",
    "lat": 24.55,
    "lng": 92.6
  },
  "788165": {
    "name": "Manipurbagan",
    "lat": 24.55,
    "lng": 92.6
  },
  "788164": {
    "name": "Monacherra",
    "lat": 24.55,
    "lng": 92.6
  },
  "788163": {
    "name": "Lala",
    "lat": 24.55,
    "lng": 92.6
  },
  "788161": {
    "name": "Katlacherra",
    "lat": 24.55,
    "lng": 92.6
  },
  "788160": {
    "name": "Jaffirband",
    "lat": 24.55,
    "lng": 92.6
  },
  "788156": {
    "name": "Anilgarh",
    "lat": 24.6833,
    "lng": 92.5667
  },
  "788155": {
    "name": "Ratanpur Road",
    "lat": 24.6833,
    "lng": 92.5667
  },
  "788152": {
    "name": "Lakshmishahar",
    "lat": 24.6833,
    "lng": 92.5667
  },
  "788151": {
    "name": "Hailakandi",
    "lat": 24.6833,
    "lng": 92.5667
  },
  "788150": {
    "name": "Kalibari Bazar",
    "lat": 24.6833,
    "lng": 92.5667
  },
  "788145": {
    "name": "Chiparsangam",
    "lat": 24.7194,
    "lng": 92.7722
  },
  "788125": {
    "name": "Laboc",
    "lat": 24.7194,
    "lng": 92.7722
  },
  "788124": {
    "name": "Irongmara",
    "lat": 24.7194,
    "lng": 92.7722
  },
  "788123": {
    "name": "Bekirpar",
    "lat": 24.7194,
    "lng": 92.7722
  },
  "788122": {
    "name": "Manierkhal",
    "lat": 24.7194,
    "lng": 92.7722
  },
  "788121": {
    "name": "Kabuganjbazar",
    "lat": 24.7194,
    "lng": 92.7722
  },
  "788119": {
    "name": "Sonaimukh",
    "lat": 24.7167,
    "lng": 92.9
  },
  "788117": {
    "name": "Rosekandi",
    "lat": 24.7667,
    "lng": 92.7889
  },
  "788116": {
    "name": "Palonghat",
    "lat": 24.7667,
    "lng": 92.7889
  },
  "788115": {
    "name": "Narsingpur",
    "lat": 24.7667,
    "lng": 92.7889
  },
  "788114": {
    "name": "Dholai Bazar",
    "lat": 24.7667,
    "lng": 92.7889
  },
  "788113": {
    "name": "Dwarband",
    "lat": 24.65,
    "lng": 92.7
  },
  "788112": {
    "name": "Derby",
    "lat": 24.7667,
    "lng": 92.7889
  },
  "788111": {
    "name": "Dalu",
    "lat": 24.9333,
    "lng": 92.7667
  },
  "788107": {
    "name": "Joypur Raja Bazar",
    "lat": 24.7833,
    "lng": 93.1
  },
  "788106": {
    "name": "Fulertal",
    "lat": 24.7833,
    "lng": 93.1
  },
  "788104": {
    "name": "Jirighat",
    "lat": 24.7833,
    "lng": 93.1
  },
  "788103": {
    "name": "Lakhipur (Cachar)",
    "lat": 24.7833,
    "lng": 93.1
  },
  "788102": {
    "name": "Dewan",
    "lat": 24.7833,
    "lng": 93.1
  },
  "788101": {
    "name": "Bankandi",
    "lat": 24.7833,
    "lng": 93.1
  },
  "788099": {
    "name": "Matinagar",
    "lat": 24.8667,
    "lng": 92.7667
  },
  "788098": {
    "name": "Pailapool",
    "lat": 24.8667,
    "lng": 92.7667
  },
  "788030": {
    "name": "Udarbond",
    "lat": 24.8667,
    "lng": 92.7667
  },
  "788025": {
    "name": "Arunachal",
    "lat": 24.8667,
    "lng": 92.7667
  },
  "788019": {
    "name": "Barkhola",
    "lat": 24.8667,
    "lng": 92.7667
  },
  "788015": {
    "name": "Meherpur",
    "lat": 24.8667,
    "lng": 92.7667
  },
  "788014": {
    "name": "Silchar Regional",
    "lat": 24.8667,
    "lng": 92.7667
  },
  "788013": {
    "name": "Sonabarighat",
    "lat": 24.8667,
    "lng": 92.7667
  },
  "788011": {
    "name": "Kanakpur",
    "lat": 24.8667,
    "lng": 92.7667
  },
  "788010": {
    "name": "Engineering College",
    "lat": 24.8667,
    "lng": 92.7667
  },
  "788009": {
    "name": "Rongpur",
    "lat": 24.8667,
    "lng": 92.7667
  },
  "788007": {
    "name": "Vivekananda Road",
    "lat": 24.8667,
    "lng": 92.7667
  },
  "788006": {
    "name": "Link Road",
    "lat": 24.8667,
    "lng": 92.7667
  },
  "788005": {
    "name": "Rangirkhari",
    "lat": 24.8667,
    "lng": 92.7667
  },
  "788004": {
    "name": "Gurucharan College",
    "lat": 24.8667,
    "lng": 92.7667
  },
  "788003": {
    "name": "Tarapur",
    "lat": 24.8667,
    "lng": 92.7667
  },
  "788002": {
    "name": "Malugram",
    "lat": 24.8667,
    "lng": 92.7667
  },
  "788001": {
    "name": "Dewanji Bazar",
    "lat": 24.8667,
    "lng": 92.7667
  },
  "787060": {
    "name": "Jonai",
    "lat": 27.3722,
    "lng": 94.45
  },
  "787059": {
    "name": "Silapathar",
    "lat": 27.3722,
    "lng": 94.45
  },
  "787058": {
    "name": "Machkhowa",
    "lat": 27.3722,
    "lng": 94.45
  },
  "787057": {
    "name": "Dhemaji",
    "lat": 27.4833,
    "lng": 94.5833
  },
  "787056": {
    "name": "Pathalipam",
    "lat": 27.4333,
    "lng": 94.3
  },
  "787055": {
    "name": "Dhakuakhana",
    "lat": 27.2,
    "lng": 94.4667
  },
  "787054": {
    "name": "Islamgaon",
    "lat": 27.3722,
    "lng": 94.45
  },
  "787053": {
    "name": "Ghilamara",
    "lat": 27.3722,
    "lng": 94.45
  },
  "787052": {
    "name": "Panigaon",
    "lat": 27.3722,
    "lng": 94.45
  },
  "787051": {
    "name": "Lilabari Air Field",
    "lat": 27.3722,
    "lng": 94.45
  },
  "787032": {
    "name": "Maidamia",
    "lat": 27.3722,
    "lng": 94.45
  },
  "787030": {
    "name": "Baginadi",
    "lat": 27.3722,
    "lng": 94.45
  },
  "787029": {
    "name": "Moinapara",
    "lat": 27.3722,
    "lng": 94.45
  },
  "787028": {
    "name": "Nowboicha",
    "lat": 27.3722,
    "lng": 94.45
  },
  "787001": {
    "name": "North Lakhimpur H O",
    "lat": 27.3722,
    "lng": 94.45
  },
  "786631": {
    "name": "Longding",
    "lat": 27.0167,
    "lng": 95.5667
  },
  "786630": {
    "name": "Khonsa",
    "lat": 27.0167,
    "lng": 95.5667
  },
  "786624": {
    "name": "Barbam",
    "lat": 27.0167,
    "lng": 95.5667
  },
  "786623": {
    "name": "Parbatpur",
    "lat": 27.0167,
    "lng": 95.5667
  },
  "786622": {
    "name": "Namrup T P S",
    "lat": 27.0167,
    "lng": 95.5667
  },
  "786621": {
    "name": "Namrup",
    "lat": 27.0167,
    "lng": 95.5667
  },
  "786616": {
    "name": "Lengri Bazar",
    "lat": 27.0167,
    "lng": 95.5667
  },
  "786615": {
    "name": "Kowarigaon",
    "lat": 27.0167,
    "lng": 95.5667
  },
  "786614": {
    "name": "Jeypore",
    "lat": 27.0167,
    "lng": 95.5667
  },
  "786613": {
    "name": "Bamunbari",
    "lat": 27.0167,
    "lng": 95.5667
  },
  "786612": {
    "name": "Tingkong",
    "lat": 27.0167,
    "lng": 95.5667
  },
  "786611": {
    "name": "Rajgarh",
    "lat": 27.0167,
    "lng": 95.5667
  },
  "786610": {
    "name": "Naharkatia",
    "lat": 27.0167,
    "lng": 95.5667
  },
  "786602": {
    "name": "Duliajan",
    "lat": 27.0167,
    "lng": 95.5667
  },
  "786601": {
    "name": "Hoogrijan",
    "lat": 27.0167,
    "lng": 95.5667
  },
  "786186": {
    "name": "Hatibandha",
    "lat": 27.3,
    "lng": 95.7917
  },
  "786185": {
    "name": "Dinjan",
    "lat": 27.3,
    "lng": 95.7917
  },
  "786184": {
    "name": "Chabua",
    "lat": 27.3,
    "lng": 95.7917
  },
  "786183": {
    "name": "Panitola",
    "lat": 27.3,
    "lng": 95.7917
  },
  "786182": {
    "name": "Ledo",
    "lat": 27.3,
    "lng": 95.7917
  },
  "786181": {
    "name": "Margherita",
    "lat": 27.2833,
    "lng": 95.6833
  },
  "786180": {
    "name": "Lekhapani",
    "lat": 27.3167,
    "lng": 95.9
  },
  "786173": {
    "name": "Jubilee Digboi",
    "lat": 27.3278,
    "lng": 95.5833
  },
  "786172": {
    "name": "Powai",
    "lat": 27.3278,
    "lng": 95.5833
  },
  "786171": {
    "name": "Digboi",
    "lat": 27.3278,
    "lng": 95.5833
  },
  "786170": {
    "name": "Makum Junction",
    "lat": 27.3278,
    "lng": 95.5833
  },
  "786159": {
    "name": "Talap",
    "lat": 27.3278,
    "lng": 95.5833
  },
  "786158": {
    "name": "Kundil",
    "lat": 27.3278,
    "lng": 95.5833
  },
  "786157": {
    "name": "Chapakhowa",
    "lat": 27.3278,
    "lng": 95.5833
  },
  "786155": {
    "name": "Sadiya",
    "lat": 27.3278,
    "lng": 95.5833
  },
  "786154": {
    "name": "Saikhowaghat",
    "lat": 27.3278,
    "lng": 95.5833
  },
  "786153": {
    "name": "Rupai Siding",
    "lat": 27.3278,
    "lng": 95.5833
  },
  "786152": {
    "name": "Kakapathar",
    "lat": 27.3278,
    "lng": 95.5833
  },
  "786151": {
    "name": "Netaji Road",
    "lat": 27.3278,
    "lng": 95.5833
  },
  "786150": {
    "name": "Barhapjan",
    "lat": 27.3278,
    "lng": 95.5833
  },
  "786148": {
    "name": "Mankhooli",
    "lat": 27.3278,
    "lng": 95.5833
  },
  "786147": {
    "name": "Rangagorah",
    "lat": 27.3278,
    "lng": 95.5833
  },
  "786146": {
    "name": "Sukhanpukhuri",
    "lat": 27.3278,
    "lng": 95.5833
  },
  "786145": {
    "name": "Sripuria",
    "lat": 27.3278,
    "lng": 95.5833
  },
  "786125": {
    "name": "Parbatia",
    "lat": 27.3278,
    "lng": 95.5833
  },
  "786110": {
    "name": "Sissibargaon",
    "lat": 27.3278,
    "lng": 95.5833
  },
  "786103": {
    "name": "Tengakhat",
    "lat": 27.3833,
    "lng": 95.1667
  },
  "786102": {
    "name": "Chabua Air Field",
    "lat": 27.3833,
    "lng": 95.1667
  },
  "786101": {
    "name": "Dikom",
    "lat": 27.3833,
    "lng": 95.1667
  },
  "786054": {
    "name": "Lezai",
    "lat": 27.25,
    "lng": 95.5792
  },
  "786053": {
    "name": "Kotona",
    "lat": 27.25,
    "lng": 95.5792
  },
  "786052": {
    "name": "Tinthengia",
    "lat": 27.25,
    "lng": 95.5792
  },
  "786012": {
    "name": "Mohanbari Air Field",
    "lat": 27.25,
    "lng": 95.5792
  },
  "786010": {
    "name": "Lahoal",
    "lat": 27.25,
    "lng": 95.5792
  },
  "786008": {
    "name": "Mohanaghat",
    "lat": 27.25,
    "lng": 95.5792
  },